"id"	"name"	"description"	"additionalTypeId"	"additionalTypeName"	"startDate"	"endDate"	"addressLocality"	"addressRegion"	"postalCode"	"streetAddress"	"latitude"	"longitude"	"citation"	"sameAs"
"http://www.cinemacontext.nl/id/B001550"	"Concertgebouw"				1888-01-01		"Amsterdam"			"Concertgebouwplein 2-6"	52.3564	4.87944		"http://www.cinemacontext.nl/id/B001550"
"http://www.cinemacontext.nl/id/B001550"	"Concertgebouw"				1888-01-01		"Amsterdam"			"Van Baerlestraat"	52.3564	4.87944		"http://www.cinemacontext.nl/id/B001550"
"http://www.cinemacontext.nl/id/B001590"	"Casino Variété"	"Geen bioscoop, maar vertoont film als onderdeel van een variétévoorstelling."			1898-01-01	1932-12-31	"Rotterdam"			"Coolsingel 83"	51.9216	4.47883		"http://www.cinemacontext.nl/id/B001590"
"http://www.cinemacontext.nl/id/B000014"	"Flora"	"Voor 1929 was Flora een variététheater waar soms films werden vertoond als onderdeel van het programma. Het brandde twee keer af, in 1902 en 1929. Sinds 1977 Flora-Disney Theater geheten."			1903-01-01	1929-02-11	"Amsterdam"			"Amstelstraat 20-28"	52.3661	4.8993		"http://www.cinemacontext.nl/id/B000014"
"http://www.cinemacontext.nl/id/B000938"	"Tivoli (Coolsingel)"	"Ook bekend als Tivoli Wintertuin, waar vanaf 1903 The Royal American Bioscope filmvoorstellingen gaf in de wintermaanden. Tussen 1915-1918 Cinema Pathé geheten. Niet te verwarren met Tivoli Bioscope, Hoogstraat 160, waar vaak dezelfde films te zien waren"			1903-10-10	1926-04-30	"Rotterdam"			"Coolsingel 26"	51.9229	4.47831		"http://www.cinemacontext.nl/id/B000938"
"http://www.cinemacontext.nl/id/B000938"	"Tivoli (Coolsingel)"	"Ook bekend als Tivoli Wintertuin, waar vanaf 1903 The Royal American Bioscope filmvoorstellingen gaf in de wintermaanden. Tussen 1915-1918 Cinema Pathé geheten. Niet te verwarren met Tivoli Bioscope, Hoogstraat 160, waar vaak dezelfde films te zien waren"			1903-10-10	1926-04-30	"Rotterdam"			"Coolsingel 57 (vanaf 1923)"	51.9229	4.47831		"http://www.cinemacontext.nl/id/B000938"
"http://www.cinemacontext.nl/id/B001817"	"Koninklijke Nederlandsche Bioscope"	"ook: Nederlandsche Bioscope Compagnie"			1905-11-16	1905-12-23	"Den Haag"			"Passage 44"	52.0781	4.311		"http://www.cinemacontext.nl/id/B001817"
"http://www.cinemacontext.nl/id/B000131"	"Salon Cinémato Francais, Palais Lumineux"				1906-07-23	1906-12-31	"Den Haag"			"Passage 44"	52.0781	4.311		"http://www.cinemacontext.nl/id/B000131"
"http://www.cinemacontext.nl/id/B000083"	"Bijou Biograph Theatre"	"Bijou kreeg geen vergunning om muziek te maken (die vergunning werd pas na 1915 verleend aan de opvolger, zie Damstraat Bioscope)."			1906-11-01	1915-01-31	"Amsterdam"			"Damstraat 20"	52.3722	4.89478		"http://www.cinemacontext.nl/id/B000083"
"http://www.cinemacontext.nl/id/B000176"	"Vitascope Theatre"				1906-11-16	1912-11-30	"Den Haag"			"Passage 44"	52.0781	4.311		"http://www.cinemacontext.nl/id/B000176"
"http://www.cinemacontext.nl/id/B000164"	"Scala (Wagenstraat)"	"Ook wel ""Scala - Alberts Frères"" geheten van 1924 tot 1925. Scala vertoonde in 1921-1922 onder de naam ""Eerste Haagsche Jeugd Bioscoop"" op zaterdagmiddag films voor de jeugd. Scala was niet de eerste jeugdbioscoop in Den Haag: de Gemeentelijke Schoolbioscoop aan de Hoefkade ging al in 1918 open. NB: Er is ook een Scala in Scheveningen."			1907-01-01	1909-12-31	"Den Haag"			"Wagenstraat 34"	52.076	4.31231		"http://www.cinemacontext.nl/id/B000164"
"http://www.cinemacontext.nl/id/B000145"	"Gebouw voor Kunsten en Wetenschappen (Alberts Frères)"	"In de zomermaanden gaven Alberts Freres hier filmvoorstellingen. Vanaf 1927 worden er nog slechts sporadisch films vertoond."			1907-01-01	1926-12-31	"Den Haag"			"Zwarteweg 7"	52.0793	4.32265		"http://www.cinemacontext.nl/id/B000145"
"http://www.cinemacontext.nl/id/B000118"	"Apollo"	"Aanvankelijk ""Cinematograph"" geheten. In 1909 Apollo gedoopt."			1907-01-01	1985-12-31	"Den Haag"			"Spuistraat 19"	52.0773	4.31156		"http://www.cinemacontext.nl/id/B000118"
"http://www.cinemacontext.nl/id/B000103"	"Paleis voor Volksvlijt"				1907-01-01	1929-12-31	"Amsterdam"			"Frederiksplein"	52.36	4.89978		"http://www.cinemacontext.nl/id/B000103"
"http://www.cinemacontext.nl/id/B001515"	"Nederlandsch Koffiehuis"	"incidentele filmvoorstellingen"			1907-01-01	1910-12-31	"Hoorn"			"Grote Noord 2-4 / Rodesteen"	52.6395	5.05862		"http://www.cinemacontext.nl/id/B001515"
"http://www.cinemacontext.nl/id/B000018"	"Nöggerath"	"Aanvankelijk alleen ""Bioscope Theater"" genoemd.  Sinds 1983 een onderdeel van Tuschinski."			1907-09-07	1983-02-23	"Amsterdam"			"Reguliersbreestraat 34"	52.3665	4.89505		"http://www.cinemacontext.nl/id/B000018"
"http://www.cinemacontext.nl/id/B001068"	"Cinématographe - Bioscope Theater"				1907-10-31	1908-10-31	"Utrecht"			"Oudegracht 144"	52.0918	5.11777		"http://www.cinemacontext.nl/id/B001068"
"http://www.cinemacontext.nl/id/B001068"	"Cinématographe - Bioscope Theater"				1907-10-31	1908-10-31	"Utrecht"			"Oudegracht Weerdzijde 21"	52.0918	5.11777		"http://www.cinemacontext.nl/id/B001068"
"http://www.cinemacontext.nl/id/B001478"	"Fotorama"				1907-11-01	1910-07-07	"Arnhem"			"Kortestraat 5"	51.9811	5.90529		"http://www.cinemacontext.nl/id/B001478"
"http://www.cinemacontext.nl/id/B000141"	"Haagsche Kunstkring"	"Gebr. Mullens geven hier van 1904 tot 1907 rond de kerstdagen filmvoorstellingen."			1908-01-01	1913-12-31	"Den Haag"			"Herengracht 13"	52.0806	4.31918		"http://www.cinemacontext.nl/id/B000141"
"http://www.cinemacontext.nl/id/B000918"	"Imperial Vio"	"Salon Doele is op dit adres gevestigd. Imperial Vio is een reisbioscoop die vaste voet aan de grond wil krijgen."			1908-01-05	1911-12-31	"Rotterdam"			"Haagsche Veer 23"	51.9236	4.48093		"http://www.cinemacontext.nl/id/B000918"
"http://www.cinemacontext.nl/id/B000918"	"Imperial Vio"	"Salon Doele is op dit adres gevestigd. Imperial Vio is een reisbioscoop die vaste voet aan de grond wil krijgen."			1908-01-05	1911-12-31	"Rotterdam"			"Haagseveer 23"	51.9236	4.48093		"http://www.cinemacontext.nl/id/B000918"
"http://www.cinemacontext.nl/id/B000534"	"De Kroon"				1908-04-01	1927-12-31	"Haarlem"			"Grote Markt 13-15"	52.3816	4.636		"http://www.cinemacontext.nl/id/B000534"
"http://www.cinemacontext.nl/id/B000231"	"Arnhems Theater"				1908-06-06	1955-12-31	"Arnhem"			"Ketelstraat 13"	51.982	5.90895		"http://www.cinemacontext.nl/id/B000231"
"http://www.cinemacontext.nl/id/B000646"	"Bioscope-Theater"	"De eerste bioscoop van Groningen."			1908-08-07	1912-02-29	"Groningen"			"Guldenstraat 4"	53.2179	6.56569		"http://www.cinemacontext.nl/id/B000646"
"http://www.cinemacontext.nl/id/B001067"	"Vreeburg Bioscoop"				1908-10-03	1974-05-26	"Utrecht"			"Vredenburg 9-10"	52.0924	5.11488		"http://www.cinemacontext.nl/id/B001067"
"http://www.cinemacontext.nl/id/B001067"	"Vreeburg Bioscoop"				1908-10-03	1974-05-26	"Utrecht"			"Vreeburg 8"	52.0924	5.11488		"http://www.cinemacontext.nl/id/B001067"
"http://www.cinemacontext.nl/id/B001364"	"Imperial (Steenstraat)"	"Buitensociëteit Amicitia. Dagelijks voorstellingen  van een uur. Op woensdag en zaterdag ook een kindervoorstelling."			1908-10-15	1909-04-15	"Leiden"			"Steenstraat 2"	52.1639	4.48445		"http://www.cinemacontext.nl/id/B001364"
"http://www.cinemacontext.nl/id/B001488"	"Bioscoop onbekend (Oude Markt)"				1908-10-27	1909-12-31	"Enschede"			"Oude Markt 11"	52.2208	6.89522		"http://www.cinemacontext.nl/id/B001488"
"http://www.cinemacontext.nl/id/B000937"	"Parisien"				1908-11-15	1922-12-31	"Rotterdam"			"Korte Hoogstraat 28 A"	51.9192	4.48234		"http://www.cinemacontext.nl/id/B000937"
"http://www.cinemacontext.nl/id/B000955"	"Transvalia"	"Vanaf 1910 ""Royal Bioscope Transvalia"" geheten."			1908-11-21	1935-04-30	"Rotterdam"			"Bergweg 108"	51.9378	4.47951		"http://www.cinemacontext.nl/id/B000955"
"http://www.cinemacontext.nl/id/B000811"	"Kinematophoon, Nijmeegsch Bioscooptheater"				1908-11-28	1909-05-31	"Nijmegen"			"Grootestraat 26"	51.848	5.86515		"http://www.cinemacontext.nl/id/B000811"
"http://www.cinemacontext.nl/id/B000648"	"Apollo"	"Ook Huis De Beurs en De Beurs genoemd. Huis De Beurs was een ""concert- en schouwburgzaal"" waar al in 1908 films werden vertoond. Op 27 augustus 1908 vloog tijdens een voorstelling van Alex Benner de film in brand."			1909-01-01	1917-05-03	"Groningen"			"A-Kerkhof 4"	53.2166	6.56366		"http://www.cinemacontext.nl/id/B000648"
"http://www.cinemacontext.nl/id/B001096"	"Kinematograph"				1909-01-01	1912-07-31	"Venlo"			"Vleeschtraat 36 (tot 1945)"	51.3687	6.16833		"http://www.cinemacontext.nl/id/B001096"
"http://www.cinemacontext.nl/id/B001096"	"Kinematograph"				1909-01-01	1912-07-31	"Venlo"			"Vleesstraat 46"	51.3687	6.16833		"http://www.cinemacontext.nl/id/B001096"
"http://www.cinemacontext.nl/id/B001533"	"Passage Bioscoop I"	"Na de sluiting op 17 mei 1928 werd de exploitatie tijdelijk voorgezet in Trianon tot oktober 1929. Al sinds 1905 filmvoorstellingen onder verschillende namen: 1905 Kon. Ned. Bioscope 1906 's-Gravenhaagsche Bioscope Company 1906 Salon Cinémato Francais 1906-1908 Vitascope"			1909-01-01	1928-05-17	"Den Haag"			"Passage 44"	52.0781	4.311		"http://www.cinemacontext.nl/id/B001533"
"http://www.cinemacontext.nl/id/B000904"	"Excelsior"				1909-01-01	1911-12-31	"Rotterdam Kralingen"			"Jardin Rozenburg"	51.9282	4.51333		"http://www.cinemacontext.nl/id/B000904"
"http://www.cinemacontext.nl/id/B000139"	"Flora (Wagenstraat)"	"Tot 1913 variété met film onder de naam The Royal Bioscope. Van 1914-1918 Bouwmeester Theater geheten, voornamelijk variété, soms ook een film. Tussen 1951-1953 werd Flora tijdelijk Plaza genoemd."			1909-01-29	1913-12-31	"Den Haag"			"Wagenstraat 79-81"	52.0754	4.31326		"http://www.cinemacontext.nl/id/B000139"
"http://www.cinemacontext.nl/id/B001244"	"Cinéma Theâtre"				1909-04-10	1909-12-31	"Utrecht"			"Oudegracht 144"	52.0918	5.11777		"http://www.cinemacontext.nl/id/B001244"
"http://www.cinemacontext.nl/id/B001244"	"Cinéma Theâtre"				1909-04-10	1909-12-31	"Utrecht"			"Oudegracht Weerdzijde 21"	52.0918	5.11777		"http://www.cinemacontext.nl/id/B001244"
"http://www.cinemacontext.nl/id/B000881"	"Apollo (Bagijnenstraat)"				1909-04-27	1915-12-31	"Rotterdam"			"Bagijnenstraat 6"	51.9226	4.48425		"http://www.cinemacontext.nl/id/B000881"
"http://www.cinemacontext.nl/id/B000691"	"Imperial Elite Bioscoop"	"""Elite Bioscoop"" geheten tussen 1915-1916"			1909-05-01	1918-07-15	"Leiden"			"Rijnsburgersingel 8 (tot 1912)"	52.1647	4.48428		"http://www.cinemacontext.nl/id/B000691"
"http://www.cinemacontext.nl/id/B000691"	"Imperial Elite Bioscoop"	"""Elite Bioscoop"" geheten tussen 1915-1916"			1909-05-01	1918-07-15	"Leiden"			"Stationsweg 19"	52.1647	4.48428		"http://www.cinemacontext.nl/id/B000691"
"http://www.cinemacontext.nl/id/B000167"	"Seinpost Theater"				1909-09-01	1971-12-31	"Den Haag"			"Seinpostduin 32 (Scheveningen)"	52.109	4.2763		"http://www.cinemacontext.nl/id/B000167"
"http://www.cinemacontext.nl/id/B000167"	"Seinpost Theater"				1909-09-01	1971-12-31	"Den Haag"			"Zeekant 61 (tot 1945)"	52.109	4.2763		"http://www.cinemacontext.nl/id/B000167"
"http://www.cinemacontext.nl/id/B001236"	"Tilburgsche Bioscope in café De Lindeboom"	"Dit zou de eerste Brabantse bioscoop zijn geweest, volgens Joost Magnus (1996). Al tijdens de kermis in oktober 1908 werden er incidentele filmvoorstellingen gegeven in de zaal van café De Lindeboom. Kastelein Devenijns begon hier vanaf 1 sept. 1909 op vaste basis films te vertonen."			1909-09-01	1911-03-31	"Tilburg"			"Heuvel  78"	51.5574	5.09105		"http://www.cinemacontext.nl/id/B001236"
"http://www.cinemacontext.nl/id/B000811"	"Kinematophoon, Nijmeegsch Bioscooptheater"				1909-09-25	1909-11-30	"Nijmegen"			"Grootestraat 26"	51.848	5.86515		"http://www.cinemacontext.nl/id/B000811"
"http://www.cinemacontext.nl/id/B001568"	"Strengholt's Bioscope"	"in gebouw Kunstmin, niet in de zomermaanden"			1909-10-24	1910-11-21	"Dordrecht"			"St. Jorisweg 76"	51.8136	4.67618		"http://www.cinemacontext.nl/id/B001568"
"http://www.cinemacontext.nl/id/B000806"	"Nieuw Nijmeegsch Bioscooptheater"				1909-11-26	1911-12-31	"Nijmegen"			"Grootestraat 8"	51.8476	5.86499		"http://www.cinemacontext.nl/id/B000806"
"http://www.cinemacontext.nl/id/B000075"	"Café-Bioscoop Blaauw"	"De  bezoekers zaten op klapstoelen aan lange tafels in de lengte van de zaal."			1909-12-01	1915-02-20	"Amsterdam"			"Rembrandtplein 8"	52.366	4.8956		"http://www.cinemacontext.nl/id/B000075"
"http://www.cinemacontext.nl/id/B001057"	"Flora"	"Op 31 januari 1929 werd in Flora de eerste openbare voorstelling van een geluidsfilm met de Loetafoon gegeven: synchroongeluid volgens het platensysteem. Dit toestel werd gepromoot en verkocht door een broer van de exploitant, Loet Barnstijn."			1909-12-23	1949-12-31	"Utrecht"			"Oudegracht 156"	52.0918	5.11829		"http://www.cinemacontext.nl/id/B001057"
"http://www.cinemacontext.nl/id/B001057"	"Flora"	"Op 31 januari 1929 werd in Flora de eerste openbare voorstelling van een geluidsfilm met de Loetafoon gegeven: synchroongeluid volgens het platensysteem. Dit toestel werd gepromoot en verkocht door een broer van de exploitant, Loet Barnstijn."			1909-12-23	1949-12-31	"Utrecht"			"Oudegracht Weerdzijde 9"	52.0918	5.11829		"http://www.cinemacontext.nl/id/B001057"
"http://www.cinemacontext.nl/id/B000932"	"Olympia"				1910-01-01	1940-05-14	"Rotterdam"			"Binnenweg 46"	51.9163	4.47004		"http://www.cinemacontext.nl/id/B000932"
"http://www.cinemacontext.nl/id/B000172"	"Tivoli"				1910-01-01	1916-12-31	"Den Haag"			"Westerbaenstraat 154"	52.0799	4.29872		"http://www.cinemacontext.nl/id/B000172"
"http://www.cinemacontext.nl/id/B000760"	"Schuttershof"				1910-01-01	1911-12-31	"Middelburg"			"Schuttershofstraat 1"	51.4986	3.60828		"http://www.cinemacontext.nl/id/B000760"
"http://www.cinemacontext.nl/id/B001529"	"Circus-Schouwburg"	"Ook bekend als Circus Pfläging, Circus Arena en Circus Variété. Incidenteel gebruikt voor filmvoorstellingen, vooral tijdens variétéprogramma's."			1910-01-01	1933-01-16	"Rotterdam"			"Stationsplein 12"	51.9237	4.47023		"http://www.cinemacontext.nl/id/B001529"
"http://www.cinemacontext.nl/id/B001279"	"Parisienne"	"Tijdelijke exploitatie."			1910-02-14	1911-12-31	"Breda"			"Lange Brugstraat 35"	51.5882	4.77392		"http://www.cinemacontext.nl/id/B001279"
"http://www.cinemacontext.nl/id/B000912"	"Hollandia (Binnenrotte)"				1910-02-19	1912-12-31	"Rotterdam"			"Binnenrotte 152"	51.9234	4.48434		"http://www.cinemacontext.nl/id/B000912"
"http://www.cinemacontext.nl/id/B001280"	"Hof van Holland"				1910-02-19	1915-08-01	"Breda"			"Reigerstraat 24"	51.5894	4.77491		"http://www.cinemacontext.nl/id/B001280"
"http://www.cinemacontext.nl/id/B000022"	"Parisien (Nieuwendijk)"				1910-03-26	1987-03-25	"Amsterdam"			"Nieuwendijk 69"	52.3772	4.8968		"http://www.cinemacontext.nl/id/B000022"
"http://www.cinemacontext.nl/id/B000681"	"Friso Bioscoop"				1910-03-26	1928-06-30	"Leeuwarden"			"Nieuwestad 85"	53.201	5.79369		"http://www.cinemacontext.nl/id/B000681"
"http://www.cinemacontext.nl/id/B000055"	"Grand Théâtre"	"1907-1909 werden hier alleen in de zomermaanden films vertoond.  Vanaf oktober 1910 vertoont B.A. Mullens enkele dagen per week films. De andere dagen is er theater. Mullens werd per 1 sept. 1911 de nieuwe eigenaar van het Grand Theatre, maar moesten de toneelvoorstellingen van Solser en Hesse toch door te laten gaan. Mullens liet het gebouw ontruimen en sluiten. In kort geding kwamen beide partijen tot een vergelijk, zodat de gedupeerde artisten toch konden optreden de volgende dag (premiere). Tussen september en december 1912 worden er weer films vertoond. Vanaf  1913 verhuurt Mullens het gebouw aan het toneelgezelschap van Heijermans en Verkade. Maart 1940 laat de fiscus de inboedel veilen omdat Mullens een belastingschuld niet wil betalen."			1910-06-03	1911-08-31	"Amsterdam"			"Amstelstraat 21-23"	52.3663	4.89862		"http://www.cinemacontext.nl/id/B000055"
"http://www.cinemacontext.nl/id/B001600"	"Opera Bioscoop"	"in Bellevue aan de Leidsekade"			1910-06-23	1913-03-28	"Amsterdam"			"Leidsekade 90"	52.364	4.88068		"http://www.cinemacontext.nl/id/B001600"
"http://www.cinemacontext.nl/id/B001069"	"Cinema Parisien"				1910-07-16	1912-07-31	"Utrecht"			"Voorstraat 8"	52.0938	5.11858		"http://www.cinemacontext.nl/id/B001069"
"http://www.cinemacontext.nl/id/B000647"	"Groninger Bioscope-Theater"				1910-08-09	1913-05-15	"Groningen"			"Grote Markt 41"	53.2182	6.56771		"http://www.cinemacontext.nl/id/B000647"
"http://www.cinemacontext.nl/id/B001664"	"Bellevue Biosoop (Plantage Middenlaan)"	"Frascati Schouwburg"			1910-10-01	1910-12-31	"Amsterdam"			"Plantage Middenlaan 4a"	52.367	4.90975		"http://www.cinemacontext.nl/id/B001664"
"http://www.cinemacontext.nl/id/B000735"	"Gala Bioscoop"				1910-10-17	1912-12-31	"Maastricht"			"Kleine Gracht 24"	50.8525	5.69228		"http://www.cinemacontext.nl/id/B000735"
"http://www.cinemacontext.nl/id/B001476"	"Juliana"	"Gevestigd in Hotel-Café-Restaurant 'Suisse'"			1910-11-23	1911-02-28	"Venlo"			"Vleesstraat 45"	51.3689	6.16841		"http://www.cinemacontext.nl/id/B001476"
"http://www.cinemacontext.nl/id/B000447"	"Apollo"				1910-12-01	1911-02-28	"Enschede"			"Burgemeesterstraat 48 / hoek Noorderhagen"	52.2209	6.89816		"http://www.cinemacontext.nl/id/B000447"
"http://www.cinemacontext.nl/id/B000447"	"Apollo"				1910-12-01	1911-02-28	"Enschede"			"Haverstraatpassage 48 / hoek Noorderhagen"	52.2209	6.89816		"http://www.cinemacontext.nl/id/B000447"
"http://www.cinemacontext.nl/id/B000390"	"Dordtsch Bioscope Theater"	"Na de brand in december 1917 voortgezet als Luxor in het pand ernaast."			1910-12-10	1917-12-14	"Dordrecht"			"Vischstraat 6"	51.8134	4.66629		"http://www.cinemacontext.nl/id/B000390"
"http://www.cinemacontext.nl/id/B000390"	"Dordtsch Bioscope Theater"	"Na de brand in december 1917 voortgezet als Luxor in het pand ernaast."			1910-12-10	1917-12-14	"Dordrecht"			"Visstraat 6"	51.8134	4.66629		"http://www.cinemacontext.nl/id/B000390"
"http://www.cinemacontext.nl/id/B001112"	"Cinema Pathé"	"in Hotel Cosmopolitain"			1910-12-17	1912-08-31	"Vlissingen"			"Coosje Buskenstraat 144"	51.4444	3.57056		"http://www.cinemacontext.nl/id/B001112"
"http://www.cinemacontext.nl/id/B001112"	"Cinema Pathé"	"in Hotel Cosmopolitain"			1910-12-17	1912-08-31	"Vlissingen"			"Coosje Buskenstraat 52 (tot 1955)"	51.4444	3.57056		"http://www.cinemacontext.nl/id/B001112"
"http://www.cinemacontext.nl/id/B001259"	"Kunstmin"	"Kunstmin is een zaal van Sociëteit Ons Genoegen. Tussen 1910 en 1912 werden hier in het winterseizoen filmvoorstellingen gegeven, meestal alleen op zondag."			1910-12-26	1911-04-20	"Gouda"			"Boelekade 67"	52.0159	4.71041		"http://www.cinemacontext.nl/id/B001259"
"http://www.cinemacontext.nl/id/B000984"	"Sneeker Bioscoop"				1911-01-01	1925-12-31	"Sneek"			"Oosterdijk 8"	53.0335	5.66453		"http://www.cinemacontext.nl/id/B000984"
"http://www.cinemacontext.nl/id/B000201"	"Almelosche Bioscoop (Grotestraat 81)"	"Sinds 1919 na verbouwing gevestigd op Grootestraat 65."			1911-01-01	1918-12-31	"Almelo"			"Grotestraat 81"	52.3565	6.66486		"http://www.cinemacontext.nl/id/B000201"
"http://www.cinemacontext.nl/id/B000071"	"Americain Bioscoop"				1911-01-01	1913-04-25	"Amsterdam"			"Daniël Stalpertstraat 67"	52.3563	4.89031		"http://www.cinemacontext.nl/id/B000071"
"http://www.cinemacontext.nl/id/B000354"	"Modern"				1911-01-01	1915-12-31	"Delft"			"Verwersdijk 1"	52.014	4.35763		"http://www.cinemacontext.nl/id/B000354"
"http://www.cinemacontext.nl/id/B000359"	"Delfzijlster Bioscoop"				1911-01-01	1920-12-31	"Delfzijl"			"Marktstraat 11"	53.331	6.92836		"http://www.cinemacontext.nl/id/B000359"
"http://www.cinemacontext.nl/id/B000599"	"Eerste Hengeloosche Bioscoop"	"ook: Bioscoopsalon"			1911-01-01	1917-12-31	"Hengelo"			"Enschedesestraat 7"	52.2652	6.79396		"http://www.cinemacontext.nl/id/B000599"
"http://www.cinemacontext.nl/id/B000645"	"Harmonie"				1911-01-01	1914-12-31	"Hilversum"			"Herenstraat 12"	52.224	5.17629		"http://www.cinemacontext.nl/id/B000645"
"http://www.cinemacontext.nl/id/B000656"	"Stadsgehoorzaal"				1911-01-01	1912-12-31	"Kampen"			"Burgwal 84"	52.5584	5.91424		"http://www.cinemacontext.nl/id/B000656"
"http://www.cinemacontext.nl/id/B001282"	"Pathé Frères Bioscoop Moderne"	"Ieder weekend film. Gesloten in september-oktober 1911."			1911-01-01	1912-01-31	"Den Bosch"			"Jan Heinsstraat 2-4"	51.6929	5.30145		"http://www.cinemacontext.nl/id/B001282"
"http://www.cinemacontext.nl/id/B001572"	"Flora"				1911-01-01	1912-12-31	"Dordrecht"			"Steegoversloot 37"	51.8157	4.67052		"http://www.cinemacontext.nl/id/B001572"
"http://www.cinemacontext.nl/id/B001161"	"Wisseman Bioscoop"				1911-01-01	1946-12-31	"Winschoten"			"Langestraat 1"	53.1431	7.03871		"http://www.cinemacontext.nl/id/B001161"
"http://www.cinemacontext.nl/id/B001181"	"De Cycloop"				1911-01-01	1925-12-31	"IJmuiden"			"Visseringstraat"	52.4625	4.59027		"http://www.cinemacontext.nl/id/B001181"
"http://www.cinemacontext.nl/id/B001381"	"Cinophoon"				1911-01-01	1912-12-31	"Nijmegen"			"Keizer Karelplein"	51.8415	5.86068		"http://www.cinemacontext.nl/id/B001381"
"http://www.cinemacontext.nl/id/B001429"	"Hommerson &amp; Fils"				1911-01-01	1913-12-31	"Hilversum"			"Stationstraat 1"	52.2271	5.18053		"http://www.cinemacontext.nl/id/B001429"
"http://www.cinemacontext.nl/id/B001569"	"Varrenhorst"	"in 1911: Bioscoop Martin Frères"			1911-01-01	1914-12-31	"Steenwijk"			"Stationsstraat 2"	52.7879	6.12068		"http://www.cinemacontext.nl/id/B001569"
"http://www.cinemacontext.nl/id/B001563"	"Bioscoop"				1911-01-01	1912-12-31	"Helden-Panningen (L)"			"--"	51.3288	5.97931		"http://www.cinemacontext.nl/id/B001563"
"http://www.cinemacontext.nl/id/B000879"	"Américain"				1911-01-08	1923-04-13	"Rotterdam"			"Hoogstraat 161"	51.9224	4.49223		"http://www.cinemacontext.nl/id/B000879"
"http://www.cinemacontext.nl/id/B000020"	"Odeon (Singel)"				1911-01-23	1916-12-31	"Amsterdam"			"Singel 460"	52.3676	4.88893		"http://www.cinemacontext.nl/id/B000020"
"http://www.cinemacontext.nl/id/B000945"	"Scala (Hoogstraat)"				1911-02-01	1924-01-31	"Rotterdam"			"Hoogstraat 375"	51.9204	4.48279		"http://www.cinemacontext.nl/id/B000945"
"http://www.cinemacontext.nl/id/B001402"	"Palace (Steenstraat)"				1911-02-11	1925-12-31	"Arnhem"			"Steenstraat 42-44"	51.9839	5.91667		"http://www.cinemacontext.nl/id/B001402"
"http://www.cinemacontext.nl/id/B001479"	"Apollo"	"Gesloten na een kleine brand."			1911-02-20	1912-05-17	"Arnhem"			"Kortestraat 5"	51.9811	5.90529		"http://www.cinemacontext.nl/id/B001479"
"http://www.cinemacontext.nl/id/B000047"	"Apollo"				1911-02-25	1964-11-08	"Amsterdam"			"Haarlemmerdijk 82"	52.3828	4.8872		"http://www.cinemacontext.nl/id/B000047"
"http://www.cinemacontext.nl/id/B000583"	"Casino"	"Dit is de eerste bioscoop van Den Helder, ook al noemt een andere zich de ""Eerste Heldersche Bioscoop""."			1911-03-01	1911-12-01	"Den Helder"			"Kanaalweg 122"	52.9629	4.75878		"http://www.cinemacontext.nl/id/B000583"
"http://www.cinemacontext.nl/id/B001242"	"Union"				1911-03-04	1930-01-31	"Amsterdam"			"Heiligeweg 34-36"	52.3675	4.8905		"http://www.cinemacontext.nl/id/B001242"
"http://www.cinemacontext.nl/id/B000153"	"Olympia"				1911-03-05	1978-07-06	"Den Haag"			"Prins Hendrikplein 2"	52.0822	4.29537		"http://www.cinemacontext.nl/id/B000153"
"http://www.cinemacontext.nl/id/B001025"	"Apollo"	"Op 15.4.1911 vergunning verleend aan Adolf Röhr en Johann Landau. Idem aan J.B. Devenijns in sept. 1911. Begin jaren 20 ook in gebruik als variététheater."			1911-04-01	1923-06-30	"Tilburg"			"Heuvel  78"	51.5574	5.09105		"http://www.cinemacontext.nl/id/B001025"
"http://www.cinemacontext.nl/id/B000021"	"Olympia (Dapperstraat)"				1911-04-01	1922-06-30	"Amsterdam"			"Dapperstraat 84"	52.3613	4.92826		"http://www.cinemacontext.nl/id/B000021"
"http://www.cinemacontext.nl/id/B001083"	"Veendammer Electro Bioscoop"	"ook: Eerste Veendammer Electro Bioscoop"			1911-04-01	1932-07-31	"Veendam"			"Kerkstraat"	53.1047	6.8784		"http://www.cinemacontext.nl/id/B001083"
"http://www.cinemacontext.nl/id/B000907"	"Flora (Weenaplein)"				1911-04-15	1912-12-31	"Rotterdam"			"Weenaplein 9"	51.9278	4.4817		"http://www.cinemacontext.nl/id/B000907"
"http://www.cinemacontext.nl/id/B000392"	"Musis Sacrum"				1911-04-15	1913-07-31	"Dordrecht"			"Burgemeester de Raadtsingel 45"	51.8076	4.6705		"http://www.cinemacontext.nl/id/B000392"
"http://www.cinemacontext.nl/id/B000392"	"Musis Sacrum"				1911-04-15	1913-07-31	"Dordrecht"			"Burgemeester de Raadtsingel 9"	51.8076	4.6705		"http://www.cinemacontext.nl/id/B000392"
"http://www.cinemacontext.nl/id/B000757"	"Electro Bioscoop"				1911-04-15	1940-05-20	"Middelburg"			"Markt 40 (tot 1951)"	51.4984	3.61105		"http://www.cinemacontext.nl/id/B000757"
"http://www.cinemacontext.nl/id/B000757"	"Electro Bioscoop"				1911-04-15	1940-05-20	"Middelburg"			"Markt 79"	51.4984	3.61105		"http://www.cinemacontext.nl/id/B000757"
"http://www.cinemacontext.nl/id/B000595"	"Eerste Helmondsche Bioscoop"				1911-04-17	1914-12-31	"Helmond"			"Binderstraat 15"	51.4815	5.65744		"http://www.cinemacontext.nl/id/B000595"
"http://www.cinemacontext.nl/id/B000595"	"Eerste Helmondsche Bioscoop"				1911-04-17	1914-12-31	"Helmond"			"Marktstraat 15"	51.4815	5.65744		"http://www.cinemacontext.nl/id/B000595"
"http://www.cinemacontext.nl/id/B001373"	"Van Lennep Bioscoop"				1911-05-01	1914-07-31	"Amsterdam"			"Kinkerstraat 309-311"	52.3649	4.86342		"http://www.cinemacontext.nl/id/B001373"
"http://www.cinemacontext.nl/id/B000053"	"Familie Bioscoop"				1911-06-01	1916-03-31	"Amsterdam"			"Nieuwendijk 11"	52.3786	4.89503		"http://www.cinemacontext.nl/id/B000053"
"http://www.cinemacontext.nl/id/B001564"	"Hotel Du Soleil"				1911-06-05	1911-12-31	"Nijmegen"			"Graafscheweg 35"	51.8406	5.85642		"http://www.cinemacontext.nl/id/B001564"
"http://www.cinemacontext.nl/id/B000291"	"Chicago"				1911-06-28	1926-12-31	"Den Bosch"			"Markt 69"	51.6895	5.30346		"http://www.cinemacontext.nl/id/B000291"
"http://www.cinemacontext.nl/id/B000106"	"Pathé"				1911-07-15	1923-11-30	"Amsterdam"			"Kalverstraat 122"	52.3698	4.89114		"http://www.cinemacontext.nl/id/B000106"
"http://www.cinemacontext.nl/id/B000630"	"Modern"				1911-07-15	1917-12-31	"Hoorn"			"Grote Noord 37"	52.6405	5.05722		"http://www.cinemacontext.nl/id/B000630"
"http://www.cinemacontext.nl/id/B001226"	"De Kroon (Diezerstraat)"				1911-07-29	1992-12-31	"Zwolle"			"Diezerstraat 66"	52.5127	6.0961		"http://www.cinemacontext.nl/id/B001226"
"http://www.cinemacontext.nl/id/B000951"	"Thalia (Coolvest)"				1911-08-20	1912-06-30	"Rotterdam"			"Coolvest 44"	51.9222	4.47894		"http://www.cinemacontext.nl/id/B000951"
"http://www.cinemacontext.nl/id/B000447"	"Apollo"				1911-08-26	1915-06-30	"Enschede"			"Burgemeesterstraat 48 / hoek Noorderhagen"	52.2209	6.89816		"http://www.cinemacontext.nl/id/B000447"
"http://www.cinemacontext.nl/id/B000447"	"Apollo"				1911-08-26	1915-06-30	"Enschede"			"Haverstraatpassage 48 / hoek Noorderhagen"	52.2209	6.89816		"http://www.cinemacontext.nl/id/B000447"
"http://www.cinemacontext.nl/id/B001940"	"Apeldoornsch Bioscooptheater"				1911-08-30	1916-08-01	"Apeldoorn"			"Marktplein 5 (tot 1929)"	52.2154	5.96407		"http://www.cinemacontext.nl/id/B001940"
"http://www.cinemacontext.nl/id/B001940"	"Apeldoornsch Bioscooptheater"				1911-08-30	1916-08-01	"Apeldoorn"			"Raadhuisplein 7"	52.2154	5.96407		"http://www.cinemacontext.nl/id/B001940"
"http://www.cinemacontext.nl/id/B000903"	"Edison (Binnenweg)"	"Behoorde tot de Deense firma die ook Kosmorama in Rotterdam en Amsterdam exploiteerde."			1911-09-10	1912-12-31	"Rotterdam"			"Binnenweg 94"	51.9162	4.46976		"http://www.cinemacontext.nl/id/B000903"
"http://www.cinemacontext.nl/id/B000917"	"Kosmorama"				1911-09-10	1920-12-31	"Rotterdam"			"Hoogstraat 357"	51.9206	4.4835		"http://www.cinemacontext.nl/id/B000917"
"http://www.cinemacontext.nl/id/B000098"	"Witte Bioscoop"				1911-09-16	1929-08-15	"Amsterdam"			"Damrak 64"	52.3748	4.8952		"http://www.cinemacontext.nl/id/B000098"
"http://www.cinemacontext.nl/id/B000531"	"Centraal"	"ingang Groenendaalsteeg"			1911-09-16	1917-09-30	"Haarlem"			"Kleine Houtstraat 77-79"	52.3774	4.63562		"http://www.cinemacontext.nl/id/B000531"
"http://www.cinemacontext.nl/id/B001562"	"Nova"				1911-09-23	1912-02-08	"Tilburg"			"Heuvel  12"	51.5573	5.09171		"http://www.cinemacontext.nl/id/B001562"
"http://www.cinemacontext.nl/id/B000063"	"Kosmorama"				1911-10-01	1919-05-11	"Amsterdam"			"Nieuwendijk 128-132"	52.376	4.89556		"http://www.cinemacontext.nl/id/B000063"
"http://www.cinemacontext.nl/id/B000344"	"Van Gelder"	"Ook wel ""Culemborgs Bioscooptheater"" geheten."			1911-10-01	1931-06-01	"Culemborg"			"Markt 41"	51.957	5.22544		"http://www.cinemacontext.nl/id/B000344"
"http://www.cinemacontext.nl/id/B000935"	"Palace (Coolsingel)"	"Tot 1921 ""Elite Bioscoop Palace"". Sinds juli 1921 ""Cinema Palace"" geheten. In 1923 heeft  Coolsingel 41 een ander nummer gekregen: Coolsingel 89."			1911-10-07	1927-07-31	"Rotterdam"			"Coolsingel 41 (tot 1923)"	51.9214	4.47921		"http://www.cinemacontext.nl/id/B000935"
"http://www.cinemacontext.nl/id/B000935"	"Palace (Coolsingel)"	"Tot 1921 ""Elite Bioscoop Palace"". Sinds juli 1921 ""Cinema Palace"" geheten. In 1923 heeft  Coolsingel 41 een ander nummer gekregen: Coolsingel 89."			1911-10-07	1927-07-31	"Rotterdam"			"Coolsingel 89"	51.9214	4.47921		"http://www.cinemacontext.nl/id/B000935"
"http://www.cinemacontext.nl/id/B000108"	"Rembrandt Bioscope"	"Boven de bioscoop was een biljartzaal met elf tafels in 1911. Adverteerde meestal in Het Volk."			1911-10-14	1927-03-31	"Amsterdam"			"Jodenbreestraat 23"	52.3694	4.90218		"http://www.cinemacontext.nl/id/B000108"
"http://www.cinemacontext.nl/id/B000702"	"Bioscope Moderne"	"ook wel ""Bioscope Moderne"" genoemd."			1911-10-28	1913-03-31	"Leiden"			"Mandenmakerssteeg 7"	52.1592	4.49		"http://www.cinemacontext.nl/id/B000702"
"http://www.cinemacontext.nl/id/B000171"	"Tip-Top"	"Bioscoop- en variététheater."			1911-11-01	1922-12-31	"Den Haag"			"Prinsegracht 24"	52.0745	4.30691		"http://www.cinemacontext.nl/id/B000171"
"http://www.cinemacontext.nl/id/B001262"	"Deventer Bioscoop"	"In 1919 verhuisd naar Smedenstraat 233."			1911-11-04	1919-12-31	"Deventer"			"Assenstraat 30"	52.2515	6.15794		"http://www.cinemacontext.nl/id/B001262"
"http://www.cinemacontext.nl/id/B001661"	"Cinophoon"	"zaal De Harmonie"			1911-11-05	1912-03-31	"Tilburg"			"Stationstraat 28"	51.5588	5.08239		"http://www.cinemacontext.nl/id/B001661"
"http://www.cinemacontext.nl/id/B000565"	"Eerste Heerlensche Bioscoop"				1911-11-11	1913-12-31	"Heerlen"			"Lindeweg /Nobelstraat"	50.8844	5.97942		"http://www.cinemacontext.nl/id/B000565"
"http://www.cinemacontext.nl/id/B001259"	"Kunstmin"	"Kunstmin is een zaal van Sociëteit Ons Genoegen. Tussen 1910 en 1912 werden hier in het winterseizoen filmvoorstellingen gegeven, meestal alleen op zondag."			1911-11-19	1912-04-07	"Gouda"			"Boelekade 67"	52.0159	4.71041		"http://www.cinemacontext.nl/id/B001259"
"http://www.cinemacontext.nl/id/B001274"	"Flora"	"in sociëteit en concertzaal Apollo's Lust"			1911-11-25	1912-12-31	"Eindhoven"			"Vestdijk"	51.4381	5.48238		"http://www.cinemacontext.nl/id/B001274"
"http://www.cinemacontext.nl/id/B001472"	"Bioscope Theatre"				1911-12-21	1924-12-31	"Bergen op Zoom"			"Lieve Vrouwestraat 25"	51.4951	4.28353		"http://www.cinemacontext.nl/id/B001472"
"http://www.cinemacontext.nl/id/B000498"	"Gouda Vooruit Bioscoopsalon"				1911-12-23	1921-12-31	"Gouda"			"Hoogstraat 16"	52.0126	4.70998		"http://www.cinemacontext.nl/id/B000498"
"http://www.cinemacontext.nl/id/B001660"	"Eerste Heldersche Bioscoop"	"De eerste bioscoop van Den Helder is eigenlijk Casino. Zie aldaar."			1911-12-24	1919-06-10	"Den Helder"			"Kanaalweg 112"	52.9629	4.75661		"http://www.cinemacontext.nl/id/B001660"
"http://www.cinemacontext.nl/id/B001260"	"Cinéma Pathé"				1911-12-25	1912-05-31	"Gouda"			"Kleiweg 43-45"	52.0139	4.70982		"http://www.cinemacontext.nl/id/B001260"
"http://www.cinemacontext.nl/id/B000744"	"Cinema"	"op de eerste verdieping boven het café van Duijsens"			1911-12-30	1914-12-31	"Maastricht"			"Grote Markt 35"	50.8519	5.69104		"http://www.cinemacontext.nl/id/B000744"
"http://www.cinemacontext.nl/id/B000941"	"Pschorr"	"Variététheater en danspaleis. Al in 1898 worden hier films vertoond, maar ze blijven altijd marginaal."			1912-01-01	1916-12-31	"Rotterdam"			"Korte Hoogstraat 19"	51.9194	4.48228		"http://www.cinemacontext.nl/id/B000941"
"http://www.cinemacontext.nl/id/B000802"	"Familie Bioscoop (Grootestraat)"				1912-01-01	1913-12-31	"Nijmegen"			"Grootestraat 8"	51.8476	5.86499		"http://www.cinemacontext.nl/id/B000802"
"http://www.cinemacontext.nl/id/B000192"	"Cinema Américain"	"De ingang lag tot 1935 aan de (later Gedempte) Nieuwesloot, op de hoek van de Doelenstraat."			1912-01-01	1935-07-31	"Alkmaar"			"Doelenstraat 25"	52.6328	4.74612		"http://www.cinemacontext.nl/id/B000192"
"http://www.cinemacontext.nl/id/B000192"	"Cinema Américain"	"De ingang lag tot 1935 aan de (later Gedempte) Nieuwesloot, op de hoek van de Doelenstraat."			1912-01-01	1935-07-31	"Alkmaar"			"Gedempte Nieuwesloot 54"	52.6328	4.74612		"http://www.cinemacontext.nl/id/B000192"
"http://www.cinemacontext.nl/id/B000092"	"Scala"				1912-01-01	1936-12-31	"Amsterdam"			"Haarlemmerstraat 31-39"	52.3796	4.89354		"http://www.cinemacontext.nl/id/B000092"
"http://www.cinemacontext.nl/id/B000061"	"Juliana"				1912-01-01	1918-08-01	"Amsterdam"			"Nieuwendijk 29"	52.3783	4.8955		"http://www.cinemacontext.nl/id/B000061"
"http://www.cinemacontext.nl/id/B000097"	"Wester Bioscoop"				1912-01-01	1913-07-31	"Amsterdam"			"Haarlemmerplein 7"	52.3841	4.88397		"http://www.cinemacontext.nl/id/B000097"
"http://www.cinemacontext.nl/id/B000575"	"Heerlener Lichtspiel Theater"	"Op 23 juni 1912 opende het Lichtspiel Theater al in hotel De Gouden Leeuw aan het Wilhelminaplein, maar verhuisde per 10 augustus 1912 naar de Stationstraat wegens groot succces. Gesloten in 1914-18."			1912-01-01	1914-12-31	"Heerlen"			"Stationsstraat 9"	50.8898	5.97859		"http://www.cinemacontext.nl/id/B000575"
"http://www.cinemacontext.nl/id/B000667"	"Tonhalle Bioscoop"	"andere namen voor deze bioscoop: Kosmorama (ca 1914) en Flora (ca 1919)"			1912-01-01	1945-12-31	"Kerkrade"			"Einderstraat 13"	50.8643	6.06246		"http://www.cinemacontext.nl/id/B000667"
"http://www.cinemacontext.nl/id/B000545"	"Sociëteit De Vereeniging"				1912-01-01	1914-12-31	"Haarlem"			"Lange Begijnestraat 9"	52.3819	4.63908		"http://www.cinemacontext.nl/id/B000545"
"http://www.cinemacontext.nl/id/B001447"	"Odéon (Spui)"				1912-01-01	1912-07-31	"Den Haag"			"Spui 118"	52.0771	4.31726		"http://www.cinemacontext.nl/id/B001447"
"http://www.cinemacontext.nl/id/B001251"	"Bioscope Stadskanaal"				1912-01-01	1915-12-31	"Stadskanaal - Onstwedde"			"Hoofdstraat"	52.9855	6.95493		"http://www.cinemacontext.nl/id/B001251"
"http://www.cinemacontext.nl/id/B001232"	"Hommerson"				1912-01-01	1914-12-31	"Haarlem"			"Stationstraat 1"	52.3874	4.6385		"http://www.cinemacontext.nl/id/B001232"
"http://www.cinemacontext.nl/id/B001231"	"Wereldbioscoop"				1912-01-01	1914-12-31	"Delft"			"Doelenstraat"	52.0156	4.35865		"http://www.cinemacontext.nl/id/B001231"
"http://www.cinemacontext.nl/id/B001125"	"Flora"				1912-01-01	1928-12-31	"Waalwijk"			"Grootestraat 279"	51.6907	5.06766		"http://www.cinemacontext.nl/id/B001125"
"http://www.cinemacontext.nl/id/B001125"	"Flora"				1912-01-01	1928-12-31	"Waalwijk"			"Grotestraat 279"	51.6907	5.06766		"http://www.cinemacontext.nl/id/B001125"
"http://www.cinemacontext.nl/id/B001252"	"De Leeuw"	"Ook wel het Oude Luxor genoemd."			1912-01-01	1929-12-31	"Stadskanaal - Wildervank"			"Handelsstraat ?"	53.084	6.86398		"http://www.cinemacontext.nl/id/B001252"
"http://www.cinemacontext.nl/id/B000073"	"Bioscoop onbekend 2"	"Omstreeks 1897 woonde de a.s. reisbioscoop-exploitant H. Hommerson in de Goudsbloemstraat 51, maar op dat moment werkte hij nog met een luchtschommel."			1912-01-01	1914-12-31	"Amsterdam"			"Goudsbloemstraat 52-54"	52.3808	4.88489		"http://www.cinemacontext.nl/id/B000073"
"http://www.cinemacontext.nl/id/B000302"	"onbekend"	"Volgens de Kinematograaf van 18.7.1913 zou de vaste bioscoop van Boxtel zijn gesloten voor enige tijd (zomer?) wegens gebrek aan belangstelling. Vgl. Witte Bioscoop."			1912-01-01	1913-12-31	"Boxtel"			"Gemeente"	51.5883	5.32749		"http://www.cinemacontext.nl/id/B000302"
"http://www.cinemacontext.nl/id/B001957"	"Huize Nieuw Vondel"	"Heeft zeer kort bestaan; ondernemer bleek al enkele maanden na opening niet te kunnen voldoen aan nieuwe gemeentelijke voorschriften."			1912-01-01	1913-12-31	"Amsterdam"			"Haarlemmerweg 201"	52.3853	4.8682		"http://www.cinemacontext.nl/id/B001957"
"http://www.cinemacontext.nl/id/B001589"	"De Vereeniging"				1912-01-01	1913-12-31	"Amsterdam"			"Warmoesstraat 139"	52.3736	4.89563		"http://www.cinemacontext.nl/id/B001589"
"http://www.cinemacontext.nl/id/B000600"	"Mercurius"				1912-01-01	1917-12-31	"Hengelo"			"Markt"	52.2657	6.79279		"http://www.cinemacontext.nl/id/B000600"
"http://www.cinemacontext.nl/id/B000600"	"Mercurius"				1912-01-01	1917-12-31	"Hengelo"			"Burgemeester Jansenplein 20"	52.2657	6.79279		"http://www.cinemacontext.nl/id/B000600"
"http://www.cinemacontext.nl/id/B000640"	"Odeon (Coehoornstraat)"				1912-01-01	1914-12-31	"Amsterdam"			"Coehoornstraat 6"	52.3685	4.92609		"http://www.cinemacontext.nl/id/B000640"
"http://www.cinemacontext.nl/id/B000644"	"Familie Bioscoop"				1912-01-01	1914-12-31	"Hilversum"			"Emmastraat 52"	52.2194	5.18145		"http://www.cinemacontext.nl/id/B000644"
"http://www.cinemacontext.nl/id/B000140"	"Haagsche Bioscoop"	"Na 1920 vooral cabaret en variété."			1912-01-04	1925-12-31	"Den Haag"			"Boekhorststraat 102"	52.0726	4.31087		"http://www.cinemacontext.nl/id/B000140"
"http://www.cinemacontext.nl/id/B000211"	"De Arend"				1912-01-24	1928-12-21	"Amersfoort"			"Arnhemseweg 14"	52.1515	5.38563		"http://www.cinemacontext.nl/id/B000211"
"http://www.cinemacontext.nl/id/B000210"	"Amersfoortsch Bioscooptheater"	"Voorheen was hier een rijwielschool gevestigd."			1912-02-03	1924-09-30	"Amersfoort"			"Langestraat 129"	52.1568	5.39199		"http://www.cinemacontext.nl/id/B000210"
"http://www.cinemacontext.nl/id/B001567"	"Gorinchemsch Bioscoop-Theater"	"Kolfbaan"			1912-02-17	1912-06-30	"Gorinchem"			"Nieuwstad 3"	51.8291	4.97083		"http://www.cinemacontext.nl/id/B001567"
"http://www.cinemacontext.nl/id/B001567"	"Gorinchemsch Bioscoop-Theater"	"Kolfbaan"			1912-02-17	1912-06-30	"Gorkum"			"Nieuwstad 3"	51.8291	4.97083		"http://www.cinemacontext.nl/id/B001567"
"http://www.cinemacontext.nl/id/B001508"	"Patronaat Bioscoop"				1912-02-20	1919-12-31	"Maastricht"			"Begijnenstraat 11-13"	50.8451	5.69305		"http://www.cinemacontext.nl/id/B001508"
"http://www.cinemacontext.nl/id/B000511"	"Elite"				1912-03-01	1923-02-28	"Groningen"			"Guldenstraat 4"	53.2179	6.56569		"http://www.cinemacontext.nl/id/B000511"
"http://www.cinemacontext.nl/id/B001070"	"Apollo"				1912-03-08	1912-07-31	"Utrecht"			"Oudegracht 255"	52.087	5.12167		"http://www.cinemacontext.nl/id/B001070"
"http://www.cinemacontext.nl/id/B001070"	"Apollo"				1912-03-08	1912-07-31	"Utrecht"			"Oudegracht Tolsteegzijde 85"	52.087	5.12167		"http://www.cinemacontext.nl/id/B001070"
"http://www.cinemacontext.nl/id/B001275"	"Edison"				1912-04-08	1914-12-31	"Eindhoven"			"Stratumseind 23"	51.4369	5.48036		"http://www.cinemacontext.nl/id/B001275"
"http://www.cinemacontext.nl/id/B001281"	"Paleis Bioscoop"	"ook: Palais Bioscoop"			1912-04-12	1951-12-31	"Breda"			"Lange Brugstraat 44a"	51.5881	4.77303		"http://www.cinemacontext.nl/id/B001281"
"http://www.cinemacontext.nl/id/B000624"	"Witte Bioscoop"				1912-05-01	1935-12-31	"Hoensbroek"			"Nieuwstraat 78 (tot 1960)"	50.9224	5.92911		"http://www.cinemacontext.nl/id/B000624"
"http://www.cinemacontext.nl/id/B000624"	"Witte Bioscoop"				1912-05-01	1935-12-31	"Hoensbroek"			"Nieuwstraat 82"	50.9224	5.92911		"http://www.cinemacontext.nl/id/B000624"
"http://www.cinemacontext.nl/id/B000799"	"Chicago"				1912-05-11	1944-02-22	"Nijmegen"			"Broerstraat 40"	51.8465	5.86459		"http://www.cinemacontext.nl/id/B000799"
"http://www.cinemacontext.nl/id/B001235"	"Modern Bioscooptheater"				1912-05-11	1912-12-30	"Haarlem"			"Barteljorisstraat 10"	52.3825	4.63533		"http://www.cinemacontext.nl/id/B001235"
"http://www.cinemacontext.nl/id/B001423"	"Concordia"				1912-05-31	1912-07-31	"Amsterdam"			"Rapenburg 16 b"	52.3717	4.90768		"http://www.cinemacontext.nl/id/B001423"
"http://www.cinemacontext.nl/id/B001372"	"bioscoop onbekend 4"	"Gesloten op last van de brandweer."			1912-06-01	1912-12-31	"Amsterdam"			"Goudsbloemstraat 86"	52.3807	4.88383		"http://www.cinemacontext.nl/id/B001372"
"http://www.cinemacontext.nl/id/B001575"	"Roermond's Bioscoop Theater"	"in 1912 ingang Leliestraat tijdens verbouwing"			1912-06-02	1915-12-31	"Roermond"			"Munsterplein 56"	51.194	5.98979		"http://www.cinemacontext.nl/id/B001575"
"http://www.cinemacontext.nl/id/B001278"	"Bioscoop Américain (The American Bioscoop)"	"April 1913 omgedoopt van Bioscoop Americain in The American Bioscoop. Gedurende 1915 grotendeels gesloten na een brand."			1912-06-04	1914-12-31	"Zeist"			"Boschlaan 37 (tot 1925)"	52.0878	5.25388		"http://www.cinemacontext.nl/id/B001278"
"http://www.cinemacontext.nl/id/B001278"	"Bioscoop Américain (The American Bioscoop)"	"April 1913 omgedoopt van Bioscoop Americain in The American Bioscoop. Gedurende 1915 grotendeels gesloten na een brand."			1912-06-04	1914-12-31	"Zeist"			"Boslaan 19"	52.0878	5.25388		"http://www.cinemacontext.nl/id/B001278"
"http://www.cinemacontext.nl/id/B000929"	"Schiedamsche Bioscoop"				1912-06-10	1915-05-31	"Schiedam"			"Nieuwe Haven 283"	51.9165	4.39321		"http://www.cinemacontext.nl/id/B000929"
"http://www.cinemacontext.nl/id/B001261"	"Bioscoop Internationaal"				1912-06-15	1913-03-31	"Gouda"			"Kleiweg 43-45"	52.0139	4.70982		"http://www.cinemacontext.nl/id/B001261"
"http://www.cinemacontext.nl/id/B001370"	"Keur Bioscoop (Nieuwe Achtergracht)"	"Opgericht door ""Het Comité ter Bestrijding van het Bioscoop-kwaad"", een initiatief van de Vereniging Handwerkers Vriendenkring, gevestigd in hetzelfde pand."			1912-06-18	1912-08-31	"Amsterdam"			"Nieuwe Achtergracht 140-144"	52.3629	4.91029		"http://www.cinemacontext.nl/id/B001370"
"http://www.cinemacontext.nl/id/B000135"	"Empire (Nieuwstraat)"	"Kortstondige naamsverandering in 1923-1924: Centrum Bioscoop."			1912-06-29	1923-03-31	"Den Haag"			"Nieuwstraat 28"	52.0764	4.30951		"http://www.cinemacontext.nl/id/B000135"
"http://www.cinemacontext.nl/id/B000043"	"Beurs Bioscoop"	"Gebouw De Vereeniging. Geen entrée, maar verplichte consumptie."			1912-07-01	1913-11-30	"Amsterdam"			"Warmoesstraat 139"	52.3736	4.89563		"http://www.cinemacontext.nl/id/B000043"
"http://www.cinemacontext.nl/id/B001071"	"Witte Bioscoop"				1912-07-06	1913-02-28	"Utrecht"			"Oudegracht 255"	52.087	5.12167		"http://www.cinemacontext.nl/id/B001071"
"http://www.cinemacontext.nl/id/B001071"	"Witte Bioscoop"				1912-07-06	1913-02-28	"Utrecht"			"Oudegracht Tolsteegzijde 85"	52.087	5.12167		"http://www.cinemacontext.nl/id/B001071"
"http://www.cinemacontext.nl/id/B001063"	"Scala (Lange Viestraat)"	"Verhuisd naar Potterstraat 16 in 1935."			1912-07-09	1935-04-25	"Utrecht"			"Lange Viestraat 12"	52.0933	5.11633		"http://www.cinemacontext.nl/id/B001063"
"http://www.cinemacontext.nl/id/B000968"	"Scala (Keizerstraat)"	"Scala zou eerst Casino hebben geheten, een variététheater o.l.v. Rademaker. Casino werd overgenomen door J.H. Boekholt, die het liet verbouwen tot een luxueus variététheater, Scala geheten, naar het voorbeeld van de Berlijnse Wintergarten, met Willem Blokland als kapelmeester. (A.Coret, p. 294)"			1912-07-19	1917-02-28	"Den Haag"			"Keizerstraat 38 (Scheveningen)"	52.106	4.27392		"http://www.cinemacontext.nl/id/B000968"
"http://www.cinemacontext.nl/id/B001097"	"Elite Bioscoop"	"tot 1914 ""Bioscope Theater"" geheten"			1912-08-01	1928-02-28	"Venlo"			"Vleeschtraat 36 (tot 1945)"	51.3687	6.16833		"http://www.cinemacontext.nl/id/B001097"
"http://www.cinemacontext.nl/id/B001097"	"Elite Bioscoop"	"tot 1914 ""Bioscope Theater"" geheten"			1912-08-01	1928-02-28	"Venlo"			"Vleesstraat 46"	51.3687	6.16833		"http://www.cinemacontext.nl/id/B001097"
"http://www.cinemacontext.nl/id/B001284"	"Wiener Elite Bioscoop"				1912-08-01	1913-05-13	"Zutphen"			"Berkelkade 13"	52.142	6.19226		"http://www.cinemacontext.nl/id/B001284"
"http://www.cinemacontext.nl/id/B001072"	"Union"	"Adverteert ook onder de naam: Union Cinema Parisien."			1912-08-01	1914-05-31	"Utrecht"			"Voorstraat 8"	52.0938	5.11858		"http://www.cinemacontext.nl/id/B001072"
"http://www.cinemacontext.nl/id/B000116"	"Cinéma Américain"				1912-08-11	1915-07-01	"Den Haag"			"Boekhorststraat 47"	52.0737	4.30983		"http://www.cinemacontext.nl/id/B000116"
"http://www.cinemacontext.nl/id/B000812"	"Bio Theater"				1912-08-18	1914-12-31	"Nijmegen"			"Walstraat, hoek Molenstraat"	51.8435	5.86128		"http://www.cinemacontext.nl/id/B000812"
"http://www.cinemacontext.nl/id/B000952"	"Thalia (Hoogstraat)"				1912-08-24	1940-05-14	"Rotterdam"			"Hoogstraat 325"	51.9209	4.48521		"http://www.cinemacontext.nl/id/B000952"
"http://www.cinemacontext.nl/id/B001037"	"Palace"				1912-08-24	1917-12-31	"Tilburg"			"Heuvel  12"	51.5573	5.09171		"http://www.cinemacontext.nl/id/B001037"
"http://www.cinemacontext.nl/id/B001487"	"Witte Bioscoop"				1912-08-24	1912-12-31	"Enschede"			"Haverstraat 37"	52.2207	6.89669		"http://www.cinemacontext.nl/id/B001487"
"http://www.cinemacontext.nl/id/B001371"	"Victoria (Rapenburg)"				1912-08-24	1915-04-30	"Amsterdam"			"Rapenburg 16 b"	52.3717	4.90768		"http://www.cinemacontext.nl/id/B001371"
"http://www.cinemacontext.nl/id/B001234"	"Union"	"Geopend op koninginnedag 1912. Doorlopende voorstellingen. Eerste directie: De Haan &amp; Co."			1912-08-31	1914-07-31	"Den Haag"			"Spui 118"	52.0771	4.31726		"http://www.cinemacontext.nl/id/B001234"
"http://www.cinemacontext.nl/id/B000055"	"Grand Théâtre"	"1907-1909 werden hier alleen in de zomermaanden films vertoond.  Vanaf oktober 1910 vertoont B.A. Mullens enkele dagen per week films. De andere dagen is er theater. Mullens werd per 1 sept. 1911 de nieuwe eigenaar van het Grand Theatre, maar moesten de toneelvoorstellingen van Solser en Hesse toch door te laten gaan. Mullens liet het gebouw ontruimen en sluiten. In kort geding kwamen beide partijen tot een vergelijk, zodat de gedupeerde artisten toch konden optreden de volgende dag (premiere). Tussen september en december 1912 worden er weer films vertoond. Vanaf  1913 verhuurt Mullens het gebouw aan het toneelgezelschap van Heijermans en Verkade. Maart 1940 laat de fiscus de inboedel veilen omdat Mullens een belastingschuld niet wil betalen."			1912-09-01	1913-01-13	"Amsterdam"			"Amstelstraat 21-23"	52.3663	4.89862		"http://www.cinemacontext.nl/id/B000055"
"http://www.cinemacontext.nl/id/B001366"	"Metropole"				1912-09-01	1913-12-31	"Winschoten"			"Langestraat 54"	53.1448	7.03575		"http://www.cinemacontext.nl/id/B001366"
"http://www.cinemacontext.nl/id/B000296"	"Royal"				1912-09-06	1964-12-31	"Den Bosch"			"Hinthamerstraat 26"	51.6891	5.30586		"http://www.cinemacontext.nl/id/B000296"
"http://www.cinemacontext.nl/id/B001571"	"Thalia"				1912-09-23	1912-12-31	"Dordrecht"			"Groenmarkt 65"	51.8149	4.666		"http://www.cinemacontext.nl/id/B001571"
"http://www.cinemacontext.nl/id/B000882"	"Apollo (Goudseweg)"				1912-09-27	1912-12-31	"Rotterdam"			"Goudschenweg 124"	51.9271	4.49073		"http://www.cinemacontext.nl/id/B000882"
"http://www.cinemacontext.nl/id/B000882"	"Apollo (Goudseweg)"				1912-09-27	1912-12-31	"Rotterdam"			"Goudseweg 124"	51.9271	4.49073		"http://www.cinemacontext.nl/id/B000882"
"http://www.cinemacontext.nl/id/B000207"	"Witte Bioscoop"				1912-10-01	1918-12-31	"Almelo"			"Stationsplein"	52.3569	6.65678		"http://www.cinemacontext.nl/id/B000207"
"http://www.cinemacontext.nl/id/B000450"	"Flora"				1912-10-01	1918-01-31	"Enschede"			"Van Lochemstraat 10"	52.2223	6.89795		"http://www.cinemacontext.nl/id/B000450"
"http://www.cinemacontext.nl/id/B001030"	"Harmonie"	"oorspronkelijk: Nieuwe Koninklijke Harmonie. De grote zaal werd in 1944 door een tijdbom verwoest. Heropend in 1958."			1912-10-06	1944-12-31	"Tilburg"			"Stationstraat 28"	51.5588	5.08239		"http://www.cinemacontext.nl/id/B001030"
"http://www.cinemacontext.nl/id/B000094"	"Tavenu"	"Tavenu betekent Tot Aangename Verpozing En Nuttige Uitspanning. Het was en is een bekende naam voor veel muziekverenigingen in Nederland."			1912-10-12	1914-08-31	"Amsterdam"			"Haarlemmerdijk 161"	52.384	4.88469		"http://www.cinemacontext.nl/id/B000094"
"http://www.cinemacontext.nl/id/B001610"	"Juliana"				1912-10-20	1916-12-31	"Weert"			"Beekstraat 11"	51.2545	5.70617		"http://www.cinemacontext.nl/id/B001610"
"http://www.cinemacontext.nl/id/B001391"	"Alhambra"				1912-10-22	1998-12-31	"Vlissingen"			"Coosje Buskenstraat 144"	51.4444	3.57056		"http://www.cinemacontext.nl/id/B001391"
"http://www.cinemacontext.nl/id/B001391"	"Alhambra"				1912-10-22	1998-12-31	"Vlissingen"			"Coosje Buskenstraat 52 (tot 1955)"	51.4444	3.57056		"http://www.cinemacontext.nl/id/B001391"
"http://www.cinemacontext.nl/id/B000056"	"Haarlemmerpoort"				1912-11-01	1914-12-31	"Amsterdam"			"Haarlemmerplein 33"	52.3846	4.88291		"http://www.cinemacontext.nl/id/B000056"
"http://www.cinemacontext.nl/id/B001368"	"Edison (Haarlemmerstraat)"				1912-11-01	1913-06-30	"Amsterdam"			"Haarlemmerstraat 12 a"	52.3794	4.89384		"http://www.cinemacontext.nl/id/B001368"
"http://www.cinemacontext.nl/id/B000074"	"Bioscoop onbekend 1 (Tuinstraat)"				1912-11-01	1914-12-31	"Amsterdam"			"Tuinstraat 144-146"	52.377	4.88216		"http://www.cinemacontext.nl/id/B000074"
"http://www.cinemacontext.nl/id/B000107"	"Plantage Bioscoop (Nieuwe Herengracht)"	"Begin 1913 faillissement. Heropend op 15 sept. 1913."			1912-11-08	1915-02-28	"Amsterdam"			"Nieuwe Herengracht 117"	52.3683	4.90818		"http://www.cinemacontext.nl/id/B000107"
"http://www.cinemacontext.nl/id/B000550"	"Harmonie"				1912-11-10	1926-12-31	"Harlingen"			"Lanen 2"	53.1739	5.41599		"http://www.cinemacontext.nl/id/B000550"
"http://www.cinemacontext.nl/id/B000628"	"Hoogezandster Bioscoop"				1912-11-11	1967-12-31	"Hoogezand Sappemeer (Gr)"			"Hoofdstraat 113 (tot 1960)"	53.1636	6.76304		"http://www.cinemacontext.nl/id/B000628"
"http://www.cinemacontext.nl/id/B000628"	"Hoogezandster Bioscoop"				1912-11-11	1967-12-31	"Hoogezand Sappemeer (Gr)"			"Hoofdstraat 124"	53.1636	6.76304		"http://www.cinemacontext.nl/id/B000628"
"http://www.cinemacontext.nl/id/B000045"	"Centraal (Nieuwendijk)"				1912-11-12	1987-03-25	"Amsterdam"			"Nieuwendijk 67"	52.3773	4.89671		"http://www.cinemacontext.nl/id/B000045"
"http://www.cinemacontext.nl/id/B000013"	"Edison (Elandsgracht)"				1912-11-12	1962-02-28	"Amsterdam"			"Elandsgracht 92"	52.3695	4.88015		"http://www.cinemacontext.nl/id/B000013"
"http://www.cinemacontext.nl/id/B000578"	"Union"				1912-11-17	1925-12-31	"Heerlen"			"Saroleastraat 48"	50.8891	5.97731		"http://www.cinemacontext.nl/id/B000578"
"http://www.cinemacontext.nl/id/B001611"	"Weerter Bioscoop Theater"				1912-11-20	1913-12-31	"Weert"			"Dries"	51.2481	5.70218		"http://www.cinemacontext.nl/id/B001611"
"http://www.cinemacontext.nl/id/B000701"	"Royal"				1912-11-23	1914-12-31	"Leiden"			"Rapenburg 10"	52.1596	4.48508		"http://www.cinemacontext.nl/id/B000701"
"http://www.cinemacontext.nl/id/B001617"	"Bioscope Theatre"	"Hotel Texel"			1912-11-24	1920-12-31	"Den Burg (Texel)"			"Groeneplaats 12"	53.0538	4.79688		"http://www.cinemacontext.nl/id/B001617"
"http://www.cinemacontext.nl/id/B000150"	"Monopole"				1912-11-28	1916-02-28	"Den Haag"			"Hoefkade 602"	52.0682	4.31341		"http://www.cinemacontext.nl/id/B000150"
"http://www.cinemacontext.nl/id/B000066"	"Cinema de la Monnaie"	"Voorganger van De Munt bioscoop"			1912-11-29	1914-04-30	"Amsterdam"			"Kalverstraat 226"	52.3674	4.89261		"http://www.cinemacontext.nl/id/B000066"
"http://www.cinemacontext.nl/id/B000105"	"Panopticum (Amstelstraat)"	"Variété- en bioscooptheater. Tussen 1882 en 1919 was hier een wassenbeelden-galerij gevestigd. Sinds 1912 zat op de begane grond een klein theater voor film en variété (met de nadruk op het laatste) in de voormalige caféruimte van het Panopticum. In de eerste maanden na de heropening werden er regelmatig speelfilms vertoond, daarna slechts sporadisch. Het Panopticum is in september 1915 omgedoopt tot Centraal Theater."			1912-12-01	1914-12-31	"Amsterdam"			"Amstelstraat 14-18"	52.3661	4.89889		"http://www.cinemacontext.nl/id/B000105"
"http://www.cinemacontext.nl/id/B000158"	"Residentie Bioscoop"	"Alberts Frères Residentie Bioscoop. Willy Mullens gaf hier voorstellingen buiten het zomerseizoen."			1912-12-06	1925-11-30	"Den Haag"			"Kettingstraat 12 b"	52.078	4.31013		"http://www.cinemacontext.nl/id/B000158"
"http://www.cinemacontext.nl/id/B000649"	"Parkzicht"	"Hotel-café Parkzicht ging eind 1913 failliet."			1912-12-11	1913-12-31	"Groningen"			"Parklaan 27"	53.2123	6.5741		"http://www.cinemacontext.nl/id/B000649"
"http://www.cinemacontext.nl/id/B000562"	"Witte Bioscoop"	"Oorspronkelijk geheten: Heerenveensche Witte Bioscoop. Adres tot 1945: Vleesmarkt 5."			1912-12-18	1973-12-31	"Heerenveen"			"Vleesmarkt 4"	52.9603	5.92228		"http://www.cinemacontext.nl/id/B000562"
"http://www.cinemacontext.nl/id/B000915"	"Imperial Bioscope"				1912-12-24	1928-06-15	"Rotterdam"			"Hoogstraat 136"	51.9225	4.49266		"http://www.cinemacontext.nl/id/B000915"
"http://www.cinemacontext.nl/id/B000086"	"Prinsen Theater"	"In 1943 tijdelijk gesloten."			1912-12-25	1942-12-31	"Amsterdam"			"Prinsengracht 245 a"	52.376	4.88473		"http://www.cinemacontext.nl/id/B000086"
"http://www.cinemacontext.nl/id/B000446"	"Alhambra"				1912-12-26	2006-07-19	"Enschede"			"Stadsgravenstraat 29-31"	52.2214	6.89518		"http://www.cinemacontext.nl/id/B000446"
"http://www.cinemacontext.nl/id/B001350"	"Concordia"				1912-12-26	1916-12-31	"Enschede"			"Oude Markt 15"	52.2209	6.89525		"http://www.cinemacontext.nl/id/B001350"
"http://www.cinemacontext.nl/id/B001612"	"Juliana"	"werkt ook als reizende bioscoop in Limburg."			1912-12-26	1913-12-31	"Roermond"			"Markt 27"	51.1962	5.98549		"http://www.cinemacontext.nl/id/B001612"
"http://www.cinemacontext.nl/id/B000078"	"Cinema Palace"				1912-12-27	1927-03-31	"Amsterdam"			"Kalverstraat 224"	52.3674	4.89241		"http://www.cinemacontext.nl/id/B000078"
"http://www.cinemacontext.nl/id/B001606"	"Keur Bioscoop (Kortestraat)"				1912-12-27	1916-12-31	"Oldenzaal"			"Kortestraat"	52.3115	6.92657		"http://www.cinemacontext.nl/id/B001606"
"http://www.cinemacontext.nl/id/B000544"	"Union (Smedestraat)"				1912-12-28	1913-08-30	"Haarlem"			"Smedestraat 23"	52.3824	4.63604		"http://www.cinemacontext.nl/id/B000544"
"http://www.cinemacontext.nl/id/B000916"	"Juliana"				1913-01-01	1913-12-31	"Rotterdam"			"Binnenweg 94"	51.9162	4.46976		"http://www.cinemacontext.nl/id/B000916"
"http://www.cinemacontext.nl/id/B000809"	"De Vereeniging"				1913-01-01	1955-12-31	"Nijmegen"			"Keizer Karelplein"	51.8415	5.86068		"http://www.cinemacontext.nl/id/B000809"
"http://www.cinemacontext.nl/id/B000908"	"De Gezelligheid"				1913-01-01	1919-04-30	"Rotterdam"			"Goudschenweg 124"	51.9271	4.49073		"http://www.cinemacontext.nl/id/B000908"
"http://www.cinemacontext.nl/id/B000908"	"De Gezelligheid"				1913-01-01	1919-04-30	"Rotterdam"			"Goudseweg 124"	51.9271	4.49073		"http://www.cinemacontext.nl/id/B000908"
"http://www.cinemacontext.nl/id/B000468"	"Bioscoop onbekend"	"Volgens de Kinematograaf van 26.9.1913 had men een plan voor een bioscoop aan de Nieuwendijk m.m.v. de heer Backx."			1913-01-01	1915-12-31	"Geldrop"			"Langstraat 2"	51.422	5.56117		"http://www.cinemacontext.nl/id/B000468"
"http://www.cinemacontext.nl/id/B000492"	"Bioscoop"				1913-01-01	1932-12-31	"Gorredijk (Fr)"			"dorp"	53.0037	6.06501		"http://www.cinemacontext.nl/id/B000492"
"http://www.cinemacontext.nl/id/B000564"	"onbekend"				1913-01-01	1915-12-31	"Heerlen"			"Gemeente"	50.8875	5.97958		"http://www.cinemacontext.nl/id/B000564"
"http://www.cinemacontext.nl/id/B000739"	"Cinema Pathé"				1913-01-01	1930-04-29	"Maastricht"			"Kleine Gracht 24"	50.8525	5.69228		"http://www.cinemacontext.nl/id/B000739"
"http://www.cinemacontext.nl/id/B000658"	"Royal"				1913-01-01	1915-12-31	"Kampen"			"--"	52.5585	5.9155		"http://www.cinemacontext.nl/id/B000658"
"http://www.cinemacontext.nl/id/B001647"	"Park Theater"				1913-01-01	1922-12-31	"Enkhuizen"			"Westerstraat 173"	52.7027	5.28304		"http://www.cinemacontext.nl/id/B001647"
"http://www.cinemacontext.nl/id/B001158"	"Modern"	"Op 15 juni 1914 werd de ""alhier wonende"" W. Gennis uit Haarlem als bioscoophouder failliet verklaard (Don.)."			1913-01-01	1916-12-31	"Winschoten"			"Langestraat 54"	53.1448	7.03575		"http://www.cinemacontext.nl/id/B001158"
"http://www.cinemacontext.nl/id/B001189"	"Apollo"				1913-01-01	1984-12-31	"Zaandam"			"Dam 7"	52.439	4.82442		"http://www.cinemacontext.nl/id/B001189"
"http://www.cinemacontext.nl/id/B001503"	"Pius"	"Gebouw van de Pius-Vereeniging. Filmvoorstellingen meestal alleen op zondag."			1913-01-01	1920-12-31	"Venlo"			"Maaskade 37"	51.3735	6.1687		"http://www.cinemacontext.nl/id/B001503"
"http://www.cinemacontext.nl/id/B001374"	"Familie Bioscoop (Lange Burchtstraat)"	"Voorheen zat de Familie Bioscoop in de Grootestraat 8."			1913-01-01	1918-12-31	"Nijmegen"			"Lange Burchtstraat 8"	51.8466	5.86724		"http://www.cinemacontext.nl/id/B001374"
"http://www.cinemacontext.nl/id/B001546"	"Nieuwe Bioscoop"				1913-01-01	1913-02-01	"Dordrecht"			"Groenmarkt 65"	51.8149	4.666		"http://www.cinemacontext.nl/id/B001546"
"http://www.cinemacontext.nl/id/B001139"	"Bioscoop onbekend"	"De bioscoop moest sluiten ""wegens dubbele zaken"" (Kinem. 18.4.1913)."			1913-01-01	1913-12-31	"Watergraafsmeer"			"Gemeente"	52.3507	4.93537		"http://www.cinemacontext.nl/id/B001139"
"http://www.cinemacontext.nl/id/B001548"	"Cinema Pathé"	"in Gebouw Kunstmin"			1913-01-01	1913-06-30	"Dordrecht"			"St. Jorisweg 76"	51.8136	4.67618		"http://www.cinemacontext.nl/id/B001548"
"http://www.cinemacontext.nl/id/B000412"	"Volksbond (?)"	"Het lokaal van de Volksbond zal door de kapelaan verbouwd worden tot bioscoop; de kapelaan zal voor eigen rekening exploiteren. ""Censor en exploitant zijn dus ditmaal dezelfde persoon."" (Kinematograaf 21.11.1913)"			1913-01-01	1915-12-31	"Eersel"			"?"	51.359	5.30859		"http://www.cinemacontext.nl/id/B000412"
"http://www.cinemacontext.nl/id/B001602"	"Schager Bioscope"				1913-01-01	1916-08-31	"Schagen"			"Landbouwstraat"	52.7857	4.80287		"http://www.cinemacontext.nl/id/B001602"
"http://www.cinemacontext.nl/id/B000639"	"Novum"				1913-01-01	1915-12-31	"Alkmaar"			"Laat 120"	52.6304	4.74737		"http://www.cinemacontext.nl/id/B000639"
"http://www.cinemacontext.nl/id/B001695"	"Eerste 's-Heerenbergsche Bioscoop"				1913-01-01	1921-12-31	"s-Heerenberg (Gld)"			"Molenpoortstr. A.220 (tot 1940)"	51.8755	6.24403		"http://www.cinemacontext.nl/id/B001695"
"http://www.cinemacontext.nl/id/B001695"	"Eerste 's-Heerenbergsche Bioscoop"				1913-01-01	1921-12-31	"s-Heerenberg (Gld)"			"Molenstraat 2"	51.8755	6.24403		"http://www.cinemacontext.nl/id/B001695"
"http://www.cinemacontext.nl/id/B000054"	"Goudsbloem"				1913-01-01	1914-12-31	"Amsterdam"			"2e Goudsbloemdwarsstraat"	52.3809	4.88396		"http://www.cinemacontext.nl/id/B000054"
"http://www.cinemacontext.nl/id/B001956"	"Bioscoop onbekend (Kerkstraat)"				1913-01-01		"Amsterdam"			"Kerkstraat 311"	52.3626	4.8932		"http://www.cinemacontext.nl/id/B001956"
"http://www.cinemacontext.nl/id/B000529"	"Apollo"	"1913: begin van brand in bovenkamer waar de explicatrice woonde, aldus Kinematograaf van 24.10.1913. 1917: vermeld in Bios.courant 21.9.1917."			1913-01-04	1919-04-25	"Haarlem"			"Barteljorisstraat 10"	52.3825	4.63533		"http://www.cinemacontext.nl/id/B000529"
"http://www.cinemacontext.nl/id/B001062"	"Rembrandt"				1913-01-18		"Utrecht"			"Oudegracht 73"	52.0939	5.11627		"http://www.cinemacontext.nl/id/B001062"
"http://www.cinemacontext.nl/id/B001062"	"Rembrandt"				1913-01-18		"Utrecht"			"Oudegracht Weerdzijde 114"	52.0939	5.11627		"http://www.cinemacontext.nl/id/B001062"
"http://www.cinemacontext.nl/id/B001449"	"Eerste Rijswijksche Bioscoop"	"Hotel Leeuwendaal"			1913-01-27	1914-12-31	"Rijswijk (NH)"			"Oranjelaan 2"	52.0567	4.33855		"http://www.cinemacontext.nl/id/B001449"
"http://www.cinemacontext.nl/id/B000093"	"Swinden Theater"				1913-02-01	1926-12-31	"Amsterdam"			"1e Van Swindenstraat 72-76"	52.3619	4.9241		"http://www.cinemacontext.nl/id/B000093"
"http://www.cinemacontext.nl/id/B000076"	"Ceintuur Bioscoop"				1913-02-01	1921-12-31	"Amsterdam"			"Ceintuurbaan 280"	52.3527	4.89141		"http://www.cinemacontext.nl/id/B000076"
"http://www.cinemacontext.nl/id/B000089"	"Rubens Bioscoop"				1913-02-15	1918-12-31	"Amsterdam"			"Waterlooplein 80-82"	52.3678	4.90282		"http://www.cinemacontext.nl/id/B000089"
"http://www.cinemacontext.nl/id/B001073"	"Thalia"				1913-03-01	1914-01-31	"Utrecht"			"Steenweg 37"	52.0908	5.11813		"http://www.cinemacontext.nl/id/B001073"
"http://www.cinemacontext.nl/id/B001277"	"Bioscoop Moderne"	"Aanvankelijk 3 keer per week; gesloten in de zomermaanden. Heropening op 5 nov. 1915."			1913-03-01	1918-12-31	"Wageningen"			"Hoogstraat 205"	51.966	5.66321		"http://www.cinemacontext.nl/id/B001277"
"http://www.cinemacontext.nl/id/B000704"	"Americain"	"In 1921 ""American Bioscoop"" geheten."			1913-03-15	1914-12-31	"Leiden"			"Oranjegracht 40-42"	52.1573	4.5008		"http://www.cinemacontext.nl/id/B000704"
"http://www.cinemacontext.nl/id/B000589"	"Witte Bioscoop"				1913-03-18	1940-12-31	"Den Helder"			"Koningstraat 101 (tot 1960)"	52.9606	4.76287		"http://www.cinemacontext.nl/id/B000589"
"http://www.cinemacontext.nl/id/B000589"	"Witte Bioscoop"				1913-03-18	1940-12-31	"Den Helder"			"Koningstraat 105-107"	52.9606	4.76287		"http://www.cinemacontext.nl/id/B000589"
"http://www.cinemacontext.nl/id/B000029"	"Rozen Theater"				1913-03-22	1926-12-31	"Amsterdam"			"Rozengracht 117"	52.3728	4.87902		"http://www.cinemacontext.nl/id/B000029"
"http://www.cinemacontext.nl/id/B000051"	"Dam Bioscoop"				1913-03-22	1914-12-31	"Amsterdam"			"Damstraat 23"	52.3721	4.89527		"http://www.cinemacontext.nl/id/B000051"
"http://www.cinemacontext.nl/id/B000049"	"City Bioscope"				1913-03-26	1929-09-03	"Amsterdam"			"Prinsengracht 452"	52.3648	4.88437		"http://www.cinemacontext.nl/id/B000049"
"http://www.cinemacontext.nl/id/B000079"	"Nassau"				1913-03-27	1929-03-31	"Amsterdam"			"Lijnbaansgracht 31-32"	52.3805	4.8812		"http://www.cinemacontext.nl/id/B000079"
"http://www.cinemacontext.nl/id/B001237"	"Witte Bioscope"	"Voor 1913 had hier de stichting Katholieke Kring haar domicilie. Tot de 'Kring' behoorden o.a. een leesbibliotheek, een toneelvereniging, een handbooggezelschap en een gymnastiekvereniging. In 1913 verbouwd tot bioscoop onder leiding van kapelaan Verschuren om het publiek bij ""slechte"" theaters weg te houden. Tijdens de Eerste Wereldoorlog werd het gebouw gevorderd voor de huisvesting van gemobiliseerde soldaten."			1913-03-29	1914-12-31	"Tilburg"			"Capucijnenstraat 47"	51.5538	5.07702		"http://www.cinemacontext.nl/id/B001237"
"http://www.cinemacontext.nl/id/B001283"	"Tielsch Bioscooptheater (Waterstraat)"				1913-04-11	1915-12-31	"Tiel"			"Waterstraat 25"	51.8877	5.43619		"http://www.cinemacontext.nl/id/B001283"
"http://www.cinemacontext.nl/id/B001055"	"Centrum"				1913-04-12	1913-06-30	"Utrecht"			"Oudegracht 255"	52.087	5.12167		"http://www.cinemacontext.nl/id/B001055"
"http://www.cinemacontext.nl/id/B001055"	"Centrum"				1913-04-12	1913-06-30	"Utrecht"			"Oudegracht Tolsteegzijde 85"	52.087	5.12167		"http://www.cinemacontext.nl/id/B001055"
"http://www.cinemacontext.nl/id/B000641"	"Palace"				1913-05-03	1920-12-31	"Bussum"			"Havenstraat 12 a"	52.2753	5.16548		"http://www.cinemacontext.nl/id/B000641"
"http://www.cinemacontext.nl/id/B000312"	"Familie Bioscoop"	"in 1913: Witte Bioscoop"			1913-05-10	1923-12-31	"Breda"			"Boschstraat 9"	51.5896	4.7807		"http://www.cinemacontext.nl/id/B000312"
"http://www.cinemacontext.nl/id/B001218"	"Flora"				1913-05-14	1915-12-31	"Zutphen"			"Berkelkade 13"	52.142	6.19226		"http://www.cinemacontext.nl/id/B001218"
"http://www.cinemacontext.nl/id/B000333"	"Novum"				1913-06-01	1967-06-01	"Bussum"			"Vlietlaan 4"	52.2757	5.15946		"http://www.cinemacontext.nl/id/B000333"
"http://www.cinemacontext.nl/id/B000684"	"Metropole"	"gevestigd op de eerste verdieping"			1913-06-11	1913-11-12	"Leeuwarden"			"Zaailand 80"	53.1997	5.78912		"http://www.cinemacontext.nl/id/B000684"
"http://www.cinemacontext.nl/id/B000143"	"Japansche Bioscoop"				1913-06-18	1916-12-31	"Den Haag"			"Boekhorststraat 25"	52.0744	4.30936		"http://www.cinemacontext.nl/id/B000143"
"http://www.cinemacontext.nl/id/B001200"	"Rembrandt"				1913-06-28	1918-12-31	"Zandvoort"			"Kerkstraat 19"	52.3721	4.52768		"http://www.cinemacontext.nl/id/B001200"
"http://www.cinemacontext.nl/id/B000308"	"Witte Bioscoop"	"Vgl. ""onbekende bioscoop"" van Boxtel 1913."			1913-07-01	1915-12-31	"Boxtel"			"?"	51.5883	5.32749		"http://www.cinemacontext.nl/id/B000308"
"http://www.cinemacontext.nl/id/B000613"	"New York"				1913-07-01	1935-12-31	"Hilversum"			"Groest 23"	52.2257	5.17747		"http://www.cinemacontext.nl/id/B000613"
"http://www.cinemacontext.nl/id/B001425"	"Scala (Steenstraat)"	"Tot 1913 was hier café-restaurant Amicitia van weduwe A. Peeters-Maas gevestigd."			1913-07-01	2006-02-01	"Venlo"			"Steenstraat 1"	51.3701	6.16852		"http://www.cinemacontext.nl/id/B001425"
"http://www.cinemacontext.nl/id/B001064"	"Splendid"	"In oktober 1913 is directeur Van Alphen met de noorderzon vertrokken volgens Kinem. 10.10.1913. Is de zaak toen niet direct gesloten?"			1913-07-09	1914-12-31	"Utrecht"			"Oudegracht 255"	52.087	5.12167		"http://www.cinemacontext.nl/id/B001064"
"http://www.cinemacontext.nl/id/B001064"	"Splendid"	"In oktober 1913 is directeur Van Alphen met de noorderzon vertrokken volgens Kinem. 10.10.1913. Is de zaak toen niet direct gesloten?"			1913-07-09	1914-12-31	"Utrecht"			"Oudegracht Tolsteegzijde 85"	52.087	5.12167		"http://www.cinemacontext.nl/id/B001064"
"http://www.cinemacontext.nl/id/B001059"	"New York"	"BC 26.10.1917 noemt als adres Voorstraat 5 bis."			1913-07-19	1923-12-31	"Utrecht"			"Vredenburg 29"	52.0931	5.11306		"http://www.cinemacontext.nl/id/B001059"
"http://www.cinemacontext.nl/id/B001059"	"New York"	"BC 26.10.1917 noemt als adres Voorstraat 5 bis."			1913-07-19	1923-12-31	"Utrecht"			"Vreeburg 29"	52.0931	5.11306		"http://www.cinemacontext.nl/id/B001059"
"http://www.cinemacontext.nl/id/B000499"	"Witte Bioscoop"	"In 1921 voortgezet als Apollo."			1913-07-26	1921-05-31	"Gouda"			"Kleiweg 43-45"	52.0139	4.70982		"http://www.cinemacontext.nl/id/B000499"
"http://www.cinemacontext.nl/id/B000944"	"Royal"				1913-08-01	1935-04-28	"Rotterdam"			"Coolsingel 17"	51.9233	4.47782		"http://www.cinemacontext.nl/id/B000944"
"http://www.cinemacontext.nl/id/B000944"	"Royal"				1913-08-01	1935-04-28	"Rotterdam"			"Coolsingel 35 (vanaf 1923)"	51.9233	4.47782		"http://www.cinemacontext.nl/id/B000944"
"http://www.cinemacontext.nl/id/B000956"	"Union"				1913-08-02	1915-12-31	"Rotterdam"			"Binnenweg 94"	51.9162	4.46976		"http://www.cinemacontext.nl/id/B000956"
"http://www.cinemacontext.nl/id/B000573"	"Royal (Saroleastraat)"	"Voortzetting van de Eerste Heerlensche Bioscoop."			1913-08-11	1919-12-31	"Heerlen"				50.888	5.97811		"http://www.cinemacontext.nl/id/B000573"
"http://www.cinemacontext.nl/id/B000573"	"Royal (Saroleastraat)"	"Voortzetting van de Eerste Heerlensche Bioscoop."			1913-08-11	1919-12-31	"Heerlen"			"Saroleastraat 19"	50.888	5.97811		"http://www.cinemacontext.nl/id/B000573"
"http://www.cinemacontext.nl/id/B000587"	"Tavenu"				1913-08-14	1922-05-31	"Den Helder"			"Spoorgracht"	52.9567	4.76925		"http://www.cinemacontext.nl/id/B000587"
"http://www.cinemacontext.nl/id/B000551"	"Schouwburg Bioscoop"				1913-08-31	1940-12-31	"Harlingen"			"Zuidoostersingel 1"	53.1737	5.42502		"http://www.cinemacontext.nl/id/B000551"
"http://www.cinemacontext.nl/id/B000088"	"Roode Bioscoop"				1913-09-01	1913-12-31	"Amsterdam"			"Haarlemmerplein 7"	52.3841	4.88397		"http://www.cinemacontext.nl/id/B000088"
"http://www.cinemacontext.nl/id/B000085"	"Oostersche Bioscoop"				1913-09-01	1914-12-31	"Amsterdam"			"Weesperstraat 60-62"	52.3647	4.90585		"http://www.cinemacontext.nl/id/B000085"
"http://www.cinemacontext.nl/id/B001193"	"Ekelmans Bioscoop"	"in 1915 ook Minerva geheten"			1913-09-04	1922-12-31	"Zaltbommel"			"Gasthuisstraat 22"	51.8139	5.24912		"http://www.cinemacontext.nl/id/B001193"
"http://www.cinemacontext.nl/id/B000867"	"Cinema Americain"				1913-09-06	1933-12-31	"Roosendaal"			"Brugstraat 48"	51.5378	4.46188		"http://www.cinemacontext.nl/id/B000867"
"http://www.cinemacontext.nl/id/B001654"	"Cinema Parisien"				1913-09-13	1913-11-30	"Oss"			"Spoorlaan 23"	51.7651	5.52914		"http://www.cinemacontext.nl/id/B001654"
"http://www.cinemacontext.nl/id/B001654"	"Cinema Parisien"				1913-09-13	1913-11-30	"Oss"			"Stationsweg 23"	51.7651	5.52914		"http://www.cinemacontext.nl/id/B001654"
"http://www.cinemacontext.nl/id/B001665"	"Union (Schoterweg)"				1913-09-20	1915-12-31	"Haarlem"			"Schoterweg 49 D"	52.3921	4.64056		"http://www.cinemacontext.nl/id/B001665"
"http://www.cinemacontext.nl/id/B000138"	"Familie Bioscoop"				1913-10-01	1925-09-11	"Den Haag"			"Prinsestraat 40"	52.0787	4.30588		"http://www.cinemacontext.nl/id/B000138"
"http://www.cinemacontext.nl/id/B000420"	"Chicago"				1913-10-01	1941-12-31	"Eindhoven"			"Rechtestraat 10"	51.4392	5.47761		"http://www.cinemacontext.nl/id/B000420"
"http://www.cinemacontext.nl/id/B001113"	"Bellamy"	"Ook wel Vlissingsche Bioscoop genoemd aanvankelijk"			1913-10-15	1920-12-31	"Vlissingen"			"Bellamypark"	51.4415	3.5734		"http://www.cinemacontext.nl/id/B001113"
"http://www.cinemacontext.nl/id/B000866"	"Scala"				1913-10-26	1932-12-31	"Roermond"			"Munsterplein, hoek Christoffelstraat"	51.1931	5.98778		"http://www.cinemacontext.nl/id/B000866"
"http://www.cinemacontext.nl/id/B000101"	"Olympia Paleis (Overtoom)"				1913-11-14	1914-01-28	"Amsterdam"			"Overtoom 135-137"	52.362	4.87314		"http://www.cinemacontext.nl/id/B000101"
"http://www.cinemacontext.nl/id/B000850"	"Schinkel"				1913-11-21	1983-12-31	"Purmerend"			"Dubbele Buurt 16"	52.5091	4.94859		"http://www.cinemacontext.nl/id/B000850"
"http://www.cinemacontext.nl/id/B000745"	"Moderne"				1913-11-23	1915-12-31	"Maastricht"			"Grote Markt 45"	50.8513	5.69179		"http://www.cinemacontext.nl/id/B000745"
"http://www.cinemacontext.nl/id/B001166"	"Winterswijksche Bioscoop"				1913-12-01	1927-12-31	"Winterswijk"			"Nieuwstraat 13"	51.9729	6.72116		"http://www.cinemacontext.nl/id/B001166"
"http://www.cinemacontext.nl/id/B000740"	"Royal"	"Aanvankelijk aangekondigd als ""Witte Bioscoop""."			1913-12-06	1985-06-26	"Maastricht"			"Grote Staat 55"	50.8498	5.68989		"http://www.cinemacontext.nl/id/B000740"
"http://www.cinemacontext.nl/id/B000515"	"Cinema Palace"				1913-12-19	1984-12-31	"Groningen"			"Grote Markt 41"	53.2182	6.56771		"http://www.cinemacontext.nl/id/B000515"
"http://www.cinemacontext.nl/id/B001608"	"De Harmonie"				1913-12-20	1917-12-31	"Ede"			"Nieuweweg 54"	52.0319	5.55426		"http://www.cinemacontext.nl/id/B001608"
"http://www.cinemacontext.nl/id/B001608"	"De Harmonie"				1913-12-20	1917-12-31	"Veenendaal"			"Nieuweweg 54"	52.0319	5.55426		"http://www.cinemacontext.nl/id/B001608"
"http://www.cinemacontext.nl/id/B000913"	"Hollandia (Hoogstraat)"				1913-12-25	1915-12-31	"Rotterdam"			"Hoogstraat 398"	51.9202	4.48247		"http://www.cinemacontext.nl/id/B000913"
"http://www.cinemacontext.nl/id/B000191"	"Alkmaarsch Bioscoop Theater ABT"	"Tussen 1935-1942 Roxy geheten. Vanaf 1951 Rex."			1914-01-01	1935-07-31	"Alkmaar"			"Langestraat 92"	52.632	4.74593		"http://www.cinemacontext.nl/id/B000191"
"http://www.cinemacontext.nl/id/B000395"	"Cinema Modern"				1914-01-01	2001-12-31	"Drachten (Smallingerland)"			"Zuiderbuurt 21"	53.1059	6.0982		"http://www.cinemacontext.nl/id/B000395"
"http://www.cinemacontext.nl/id/B000741"	"De Sphinx"				1914-01-01	1932-12-31	"Maastricht"			"Boschstraat 30a"	50.8557	5.68991		"http://www.cinemacontext.nl/id/B000741"
"http://www.cinemacontext.nl/id/B000601"	"Palace"				1914-01-01	1985-12-31	"Hengelo"			"Enschedesestraat 21"	52.2649	6.7949		"http://www.cinemacontext.nl/id/B000601"
"http://www.cinemacontext.nl/id/B001598"	"Tivoli"				1914-01-01	1919-08-31	"Velsen"			"Zeeweg 59-63"	52.4581	4.62674		"http://www.cinemacontext.nl/id/B001598"
"http://www.cinemacontext.nl/id/B001182"	"Nommer Een"	"hotel"			1914-01-01	1916-12-31	"IJmuiden"			"Kanaalstraat"	52.4627	4.5959		"http://www.cinemacontext.nl/id/B001182"
"http://www.cinemacontext.nl/id/B001421"	"Ons Genoegen"				1914-01-01	1918-12-31	"Amsterdam"			"Haarlemmerplein 7"	52.3841	4.88397		"http://www.cinemacontext.nl/id/B001421"
"http://www.cinemacontext.nl/id/B001536"	"Bouwmeester Theater"				1914-01-01	1917-12-31	"Den Haag"			"Wagenstraat 79-81"	52.0754	4.31326		"http://www.cinemacontext.nl/id/B001536"
"http://www.cinemacontext.nl/id/B001945"	"Minerva (Stationsstraat)"				1914-01-01	1918-11-30	"Apeldoorn"			"Stationsstraat 88"	52.2097	5.96847		"http://www.cinemacontext.nl/id/B001945"
"http://www.cinemacontext.nl/id/B000057"	"Thalia (A)"				1914-01-01	1915-12-31	"Amsterdam"			"Haarlemmerplein 33"	52.3846	4.88291		"http://www.cinemacontext.nl/id/B000057"
"http://www.cinemacontext.nl/id/B001051"	"Concordia"				1914-01-01	1916-12-31	"Ulft"			"?"	51.8906	6.38008		"http://www.cinemacontext.nl/id/B001051"
"http://www.cinemacontext.nl/id/B000096"	"Tip-Top Theater"				1914-03-14	1942-12-31	"Amsterdam"			"Jodenbreestraat 25-27"	52.3693	4.90241		"http://www.cinemacontext.nl/id/B000096"
"http://www.cinemacontext.nl/id/B000898"	"Concordia Bioscoop"				1914-04-01	1916-03-03	"Rotterdam"			"Schiedamseweg 19"	51.91	4.4475		"http://www.cinemacontext.nl/id/B000898"
"http://www.cinemacontext.nl/id/B000596"	"Scala"	"F. Geenen wilde in 1913 zijn concertzaal vrijhouden voor uitvoeringen e.d. en liet daarom ernaast een bioscoop bouwen. Aanvankelijk zou de bioscoop ""Moderne"" heten."			1914-04-12	1969-05-31	"Helmond"			"Steenweg 17"	51.4793	5.65001		"http://www.cinemacontext.nl/id/B000596"
"http://www.cinemacontext.nl/id/B000068"	"De Munt"	"Voorheen Cinema de la Monnaie"			1914-05-21	1949-08-31	"Amsterdam"			"Kalverstraat 226"	52.3674	4.89261		"http://www.cinemacontext.nl/id/B000068"
"http://www.cinemacontext.nl/id/B000124"	"Casino (Spui)"				1914-09-18	1917-05-31	"Den Haag"			"Spui 118"	52.0771	4.31726		"http://www.cinemacontext.nl/id/B000124"
"http://www.cinemacontext.nl/id/B000954"	"Tivoli (Hoogstraat)"	"Niet te verwarren met Tivoli - Cinema Pathé, Coolsingel 26, eveneens van Goeman en Bongers. Soms dezelfde films."			1914-09-21	1922-10-15	"Rotterdam"			"Hoogstraat 160"	51.9227	4.49339		"http://www.cinemacontext.nl/id/B000954"
"http://www.cinemacontext.nl/id/B000087"	"Prinsesse Bioscoop"	"Vertoonde vooral films die goedgekeurd waren voor katholieken."			1914-10-24	1915-12-31	"Amsterdam"			"Haarlemmerdijk 161"	52.384	4.88469		"http://www.cinemacontext.nl/id/B000087"
"http://www.cinemacontext.nl/id/B000699"	"Familie Bioscoop"				1914-10-29	1915-05-31	"Leiden"			"Haarlemmerstraat 52"	52.1611	4.488		"http://www.cinemacontext.nl/id/B000699"
"http://www.cinemacontext.nl/id/B000889"	"Centraal (Binnenweg)"				1914-12-23	1940-05-14	"Rotterdam"			"Binnenweg 34"	51.9164	4.47013		"http://www.cinemacontext.nl/id/B000889"
"http://www.cinemacontext.nl/id/B000052"	"Damstraat Bioscope"	"Krijgt in 1915 vergunning voor muziek."			1915-01-01	1920-12-31	"Amsterdam"			"Damstraat 20"	52.3722	4.89478		"http://www.cinemacontext.nl/id/B000052"
"http://www.cinemacontext.nl/id/B000060"	"Hollandia (Nieuwe Herengracht)"				1915-01-01	1949-12-31	"Amsterdam"			"Nieuwe Herengracht 117"	52.3683	4.90818		"http://www.cinemacontext.nl/id/B000060"
"http://www.cinemacontext.nl/id/B000538"	"Cinema Palace"	"Vanaf 12 juni 1936 vertoonde Palace onder de naam ""Palace Filmac"" tussen 11 en 17 uur een doorlopend programma van 50 minuten, dat voornamelijk uit journaalfilms bestond. Tot 13 uur betaalde je 15 cent, daarna 20 cent."			1915-01-01	2011-01-15	"Haarlem"			"Grote Houtstraat 111-113"	52.3782	4.63232		"http://www.cinemacontext.nl/id/B000538"
"http://www.cinemacontext.nl/id/B000751"	"Meppeler Bioscoop"				1915-01-01	1932-12-31	"Meppel"			"Kleine Oever 12"	52.697	6.18856		"http://www.cinemacontext.nl/id/B000751"
"http://www.cinemacontext.nl/id/B000751"	"Meppeler Bioscoop"				1915-01-01	1932-12-31	"Meppel"			"Maatkade 4 (tot 1963)"	52.697	6.18856		"http://www.cinemacontext.nl/id/B000751"
"http://www.cinemacontext.nl/id/B001535"	"Lelie Bioscoop"	"in het gebouw van de RK St. Jozefgezellen"			1915-01-01	1916-12-31	"Rotterdam"			"Stationsplein 10"	51.9237	4.47023		"http://www.cinemacontext.nl/id/B001535"
"http://www.cinemacontext.nl/id/B000683"	"Leeuwarder Bioscoop"				1915-02-19	1977-12-31	"Leeuwarden"			"Nieuwestad 42"	53.2012	5.793		"http://www.cinemacontext.nl/id/B000683"
"http://www.cinemacontext.nl/id/B001543"	"Bioscoop"				1915-03-01	1918-12-31	"Terneuzen"			"Markt 2"	51.3366	3.8281		"http://www.cinemacontext.nl/id/B001543"
"http://www.cinemacontext.nl/id/B000059"	"Hollandia (Haarlemmerdijk)"				1915-05-01	1969-12-31	"Amsterdam"			"Haarlemmerdijk 161"	52.384	4.88469		"http://www.cinemacontext.nl/id/B000059"
"http://www.cinemacontext.nl/id/B001613"	"Flora"				1915-05-23	1917-05-31	"Roermond"			"Munsterplein 56"	51.194	5.98979		"http://www.cinemacontext.nl/id/B001613"
"http://www.cinemacontext.nl/id/B000236"	"Luxor"	"Adres tot 1963 Nieuwe Plein 47, daarna Willemsplein 10. Sinds ca 1985 in gebruik als discotheek en popmuziekzaal."			1915-05-26	1984-05-31	"Arnhem"			"Nieuwe Plein 47"	51.9834	5.90459		"http://www.cinemacontext.nl/id/B000236"
"http://www.cinemacontext.nl/id/B000236"	"Luxor"	"Adres tot 1963 Nieuwe Plein 47, daarna Willemsplein 10. Sinds ca 1985 in gebruik als discotheek en popmuziekzaal."			1915-05-26	1984-05-31	"Arnhem"			"Willemsplein 10"	51.9834	5.90459		"http://www.cinemacontext.nl/id/B000236"
"http://www.cinemacontext.nl/id/B000170"	"Thalia"				1915-07-10	1972-11-30	"Den Haag"			"Boekhorststraat 47"	52.0737	4.30983		"http://www.cinemacontext.nl/id/B000170"
"http://www.cinemacontext.nl/id/B000928"	"Flora (Nieuwe Haven)"				1915-07-30	1923-10-31	"Schiedam"			"Nieuwe Haven 283"	51.9165	4.39321		"http://www.cinemacontext.nl/id/B000928"
"http://www.cinemacontext.nl/id/B000700"	"Thalia"				1915-08-06	1920-06-30	"Leiden"			"Haarlemmerstraat 52"	52.1611	4.488		"http://www.cinemacontext.nl/id/B000700"
"http://www.cinemacontext.nl/id/B000905"	"Feijenoord"	"Een filmvoorstelling per avond, afgewisseld door variete (Bioscoop-Crt. 7 december 1917)."			1915-08-12	1924-12-31	"Rotterdam"			"Oranjeboomstraat 267"	51.9069	4.50867		"http://www.cinemacontext.nl/id/B000905"
"http://www.cinemacontext.nl/id/B000977"	"Palace"				1915-08-28	1927-12-31	"Sittard"			"Steenweg (latere benaming)"	50.9686	5.8249		"http://www.cinemacontext.nl/id/B000977"
"http://www.cinemacontext.nl/id/B000977"	"Palace"				1915-08-28	1927-12-31	"Sittard"			"Voorstad"	50.9686	5.8249		"http://www.cinemacontext.nl/id/B000977"
"http://www.cinemacontext.nl/id/B001285"	"Antoon Wegkamp's Bioscope"	"In 1915-16 exploiteert Wegkamp slechts een seizoen. In september 1916 staat hij weer met zijn reisbioscooptent in Zutphen..."			1915-09-01	1916-05-31	"Zutphen"			"Berkelkade 13"	52.142	6.19226		"http://www.cinemacontext.nl/id/B001285"
"http://www.cinemacontext.nl/id/B001950"	"Pergola"				1915-09-01	1924-08-31	"Breda"			"Reigerstraat 24"	51.5894	4.77491		"http://www.cinemacontext.nl/id/B001950"
"http://www.cinemacontext.nl/id/B001519"	"Centraal Theater (Amstelstraat)"	"Opvolger van het Panopticum. Het Centraal Theater vertoonde slechts nu en dan films. Het was van 1926 tot 1940 de vaste standplaats van het Centraal Toneel. De Filmliga gaf hier van 1927 tot 1929 haar besloten filmvoorstellingen totdat zij de beschikking kreeg over de Uitkijk. Het theater werd in 1965 gesloten en afgebroken voor de Amro Bank."			1915-09-18	1916-12-31	"Amsterdam"			"Amstelstraat 14-18"	52.3661	4.89889		"http://www.cinemacontext.nl/id/B001519"
"http://www.cinemacontext.nl/id/B001160"	"Scala"				1915-10-01	1991-11-11	"Winschoten"			"Langestraat 59-61"	53.1447	7.03625		"http://www.cinemacontext.nl/id/B001160"
"http://www.cinemacontext.nl/id/B001629"	"Royal"	"in De Doelen"			1915-10-15	1923-04-15	"Gorinchem"			"Molenstraat 30"	51.8284	4.97462		"http://www.cinemacontext.nl/id/B001629"
"http://www.cinemacontext.nl/id/B001629"	"Royal"	"in De Doelen"			1915-10-15	1923-04-15	"Gorinchem"			"Molenstraat 440"	51.8284	4.97462		"http://www.cinemacontext.nl/id/B001629"
"http://www.cinemacontext.nl/id/B001629"	"Royal"	"in De Doelen"			1915-10-15	1923-04-15	"Gorkum"			"Molenstraat 30"	51.8284	4.97462		"http://www.cinemacontext.nl/id/B001629"
"http://www.cinemacontext.nl/id/B001629"	"Royal"	"in De Doelen"			1915-10-15	1923-04-15	"Gorkum"			"Molenstraat 440"	51.8284	4.97462		"http://www.cinemacontext.nl/id/B001629"
"http://www.cinemacontext.nl/id/B000350"	"Delfia"	"Tot 1915 was hier café-restaurant Phoenix gevestigd. Heropend in sept. 1919 na langdurige sluiting."			1915-11-19	1917-12-31	"Delft"			"Binnenwatersloot 1"	52.0094	4.35597		"http://www.cinemacontext.nl/id/B000350"
"http://www.cinemacontext.nl/id/B001276"	"Witte Bioscope"	"Draaide alleen in het winterseizoen. In het eerste seizoen, 3 keer per week, in het tweede seizoen 2 keer per week."			1915-11-23	1916-03-13	"Alphen aan den Rijn"			"Julianastraat 68"	52.1297	4.66214		"http://www.cinemacontext.nl/id/B001276"
"http://www.cinemacontext.nl/id/B001278"	"Bioscoop Américain (The American Bioscoop)"	"April 1913 omgedoopt van Bioscoop Americain in The American Bioscoop. Gedurende 1915 grotendeels gesloten na een brand."			1915-12-01	1916-12-31	"Zeist"			"Boschlaan 37 (tot 1925)"	52.0878	5.25388		"http://www.cinemacontext.nl/id/B001278"
"http://www.cinemacontext.nl/id/B001278"	"Bioscoop Américain (The American Bioscoop)"	"April 1913 omgedoopt van Bioscoop Americain in The American Bioscoop. Gedurende 1915 grotendeels gesloten na een brand."			1915-12-01	1916-12-31	"Zeist"			"Boslaan 19"	52.0878	5.25388		"http://www.cinemacontext.nl/id/B001278"
"http://www.cinemacontext.nl/id/B000274"	"Kennemer Theater"				1916-01-01	1986-12-31	"Beverwijk"			"Zeestraat 41-43"	52.4818	4.65333		"http://www.cinemacontext.nl/id/B000274"
"http://www.cinemacontext.nl/id/B000685"	"Cinema Palace"	"sinds 1972 onder een dak met Studio Friesland"			1916-01-01	1994-12-31	"Leeuwarden"			"Wirdumerdijk 27"	53.2	5.79691		"http://www.cinemacontext.nl/id/B000685"
"http://www.cinemacontext.nl/id/B000178"	"Witte Bioscoop"				1916-03-01	1917-12-31	"Den Haag"			"Hoefkade 602"	52.0682	4.31341		"http://www.cinemacontext.nl/id/B000178"
"http://www.cinemacontext.nl/id/B000878"	"Alcazar"				1916-03-04	1917-05-01	"Rotterdam"			"Schiedamseweg 19"	51.91	4.4475		"http://www.cinemacontext.nl/id/B000878"
"http://www.cinemacontext.nl/id/B001593"	"Cinema Palace"				1916-04-23	1920-12-31	"Roosendaal"			"Markt 56"	51.5332	4.45421		"http://www.cinemacontext.nl/id/B001593"
"http://www.cinemacontext.nl/id/B000225"	"Flora"				1916-08-30	1918-03-31	"Apeldoorn"			"Marktplein 5 (tot 1929)"	52.2154	5.96407		"http://www.cinemacontext.nl/id/B000225"
"http://www.cinemacontext.nl/id/B000225"	"Flora"				1916-08-30	1918-03-31	"Apeldoorn"			"Raadhuisplein 7"	52.2154	5.96407		"http://www.cinemacontext.nl/id/B000225"
"http://www.cinemacontext.nl/id/B001603"	"Royal (Landbouwstraat)"				1916-09-01	1922-12-31	"Schagen"			"Landbouwstraat"	52.7857	4.80287		"http://www.cinemacontext.nl/id/B001603"
"http://www.cinemacontext.nl/id/B001276"	"Witte Bioscope"	"Draaide alleen in het winterseizoen. In het eerste seizoen, 3 keer per week, in het tweede seizoen 2 keer per week."			1916-10-06	1917-01-31	"Alphen aan den Rijn"			"Julianastraat 68"	52.1297	4.66214		"http://www.cinemacontext.nl/id/B001276"
"http://www.cinemacontext.nl/id/B001031"	"Nieuwe Bioscoop (Willem II Theater)"	"Ook: Willem II Theater genoemd. Concertzaal van de Koninklijke Liedertafel Souvenir des Montagnards."			1916-10-13	1922-04-15	"Tilburg"			"Willem II straat 29"	51.5583	5.08658		"http://www.cinemacontext.nl/id/B001031"
"http://www.cinemacontext.nl/id/B000824"	"Keur Bioscoop (Molenstraat)"				1916-11-12	1952-12-31	"Oldenzaal"			"Molenstraat 4"	52.3154	6.93065		"http://www.cinemacontext.nl/id/B000824"
"http://www.cinemacontext.nl/id/B001258"	"Familie-Bioscope"				1916-11-12	1918-12-31	"Oosterhout"			"Klappeijstraat 4"	51.6444	4.86146		"http://www.cinemacontext.nl/id/B001258"
"http://www.cinemacontext.nl/id/B000886"	"De Samaritaan"	"Incidentele filmvoorstellingen"			1917-01-01	1918-12-31	"Rotterdam"			"Linker Rottekade 99 B"	51.9315	4.48683		"http://www.cinemacontext.nl/id/B000886"
"http://www.cinemacontext.nl/id/B000817"	"Harmonie"				1917-01-01	1934-12-31	"Oisterwijk"			"Lind 67"	51.581	5.19778		"http://www.cinemacontext.nl/id/B000817"
"http://www.cinemacontext.nl/id/B000817"	"Harmonie"				1917-01-01	1934-12-31	"Oisterwijk"			"Lind B.404 (tot 1951)"	51.581	5.19778		"http://www.cinemacontext.nl/id/B000817"
"http://www.cinemacontext.nl/id/B000237"	"Musis Sacrum"	"Geen vaste bioscoop, maar wel regelmatig filmvoorstellingen in de grote zaal."			1917-01-01	1918-12-31	"Arnhem"			"Velperbuitensingel 22-25"	51.9827	5.91349		"http://www.cinemacontext.nl/id/B000237"
"http://www.cinemacontext.nl/id/B000237"	"Musis Sacrum"	"Geen vaste bioscoop, maar wel regelmatig filmvoorstellingen in de grote zaal."			1917-01-01	1918-12-31	"Arnhem"			"Velperplein"	51.9827	5.91349		"http://www.cinemacontext.nl/id/B000237"
"http://www.cinemacontext.nl/id/B000244"	"Apollo"				1917-01-01	1988-12-31	"Assen"			"Noordersingel 41"	52.9943	6.56526		"http://www.cinemacontext.nl/id/B000244"
"http://www.cinemacontext.nl/id/B000759"	"Schouwburg"	"Noodexploitatie na bombardement op 17 mei 1940."			1917-01-01	1925-10-30	"Middelburg"			"Molenwater 99"	51.5045	3.61659		"http://www.cinemacontext.nl/id/B000759"
"http://www.cinemacontext.nl/id/B000760"	"Schuttershof"				1917-01-01	1925-12-31	"Middelburg"			"Schuttershofstraat 1"	51.4986	3.60828		"http://www.cinemacontext.nl/id/B000760"
"http://www.cinemacontext.nl/id/B000664"	"Hollandia (Markt)"				1917-01-01	1964-12-31	"Kerkrade"			"Markt 51"	50.8651	6.06205		"http://www.cinemacontext.nl/id/B000664"
"http://www.cinemacontext.nl/id/B001638"	"Odeon"				1917-02-02	1920-12-31	"Schiedam"			"Tuinlaan 112"	51.9135	4.40145		"http://www.cinemacontext.nl/id/B001638"
"http://www.cinemacontext.nl/id/B001450"	"Cinéma Pathé"				1917-03-02	1917-11-30	"Den Haag"			"Keizerstraat 38 (Scheveningen)"	52.106	4.27392		"http://www.cinemacontext.nl/id/B001450"
"http://www.cinemacontext.nl/id/B000705"	"Hollandia"	"Van mei tot juli 1921 tijdelijk American Bioscoop geheten."			1917-03-29	1921-02-28	"Leiden"			"Oranjegracht 40-42"	52.1573	4.5008		"http://www.cinemacontext.nl/id/B000705"
"http://www.cinemacontext.nl/id/B000424"	"Parisien"				1917-04-07	1999-12-31	"Eindhoven"			"Vrijstraat 22"	51.4388	5.47656		"http://www.cinemacontext.nl/id/B000424"
"http://www.cinemacontext.nl/id/B000518"	"Witte Bioscoop"				1917-04-09	1918-04-01	"Groningen"			"Schuitendiep 74"	53.2179	6.57377		"http://www.cinemacontext.nl/id/B000518"
"http://www.cinemacontext.nl/id/B000518"	"Witte Bioscoop"				1917-04-09	1918-04-01	"Groningen"			"Schuitendiep 79"	53.2179	6.57377		"http://www.cinemacontext.nl/id/B000518"
"http://www.cinemacontext.nl/id/B000156"	"Princesse Schouwburg"	"1917-1925 vonden slechts nu en dan filmvertoningen plaats. In 1940 tijdelijk Ambassadeur geheten."			1917-05-01	1925-12-31	"Den Haag"			"Princessegracht 14"	52.0833	4.31758		"http://www.cinemacontext.nl/id/B000156"
"http://www.cinemacontext.nl/id/B001446"	"Rembrandt (Hoefkade)"				1917-05-20	1918-06-30	"Den Haag"			"Hoefkade 602"	52.0682	4.31341		"http://www.cinemacontext.nl/id/B001446"
"http://www.cinemacontext.nl/id/B001220"	"Odeon"				1917-08-01	1987-12-31	"Zutphen"			"Berkelkade 13"	52.142	6.19226		"http://www.cinemacontext.nl/id/B001220"
"http://www.cinemacontext.nl/id/B000940"	"Prinses Theater"				1917-08-03	1973-12-31	"Rotterdam"			"Schiedamseweg 19"	51.91	4.4475		"http://www.cinemacontext.nl/id/B000940"
"http://www.cinemacontext.nl/id/B001442"	"Parisien"				1917-11-09	1918-06-30	"Den Haag"			"Spui 118"	52.0771	4.31726		"http://www.cinemacontext.nl/id/B001442"
"http://www.cinemacontext.nl/id/B000228"	"Tivoli"				1917-12-12	1918-12-31	"Apeldoorn"			"Nieuwstraat 381"	52.216	5.95849		"http://www.cinemacontext.nl/id/B000228"
"http://www.cinemacontext.nl/id/B000228"	"Tivoli"				1917-12-12	1918-12-31	"Apeldoorn"			"Nieuwstraat 81"	52.216	5.95849		"http://www.cinemacontext.nl/id/B000228"
"http://www.cinemacontext.nl/id/B001448"	"Empire Bioscoop (Keizerstraat)"				1917-12-21	1919-12-31	"Den Haag"			"Keizerstraat 38 (Scheveningen)"	52.106	4.27392		"http://www.cinemacontext.nl/id/B001448"
"http://www.cinemacontext.nl/id/B000924"	"Luxor"	"Na de oorlog vaak in gebruik voor theatervoorstellingen, m.n. kleinkunst."			1917-12-22	1985-12-31	"Rotterdam"			"Kruiskade 30"	51.9226	4.47624		"http://www.cinemacontext.nl/id/B000924"
"http://www.cinemacontext.nl/id/B000513"	"Luxor"				1917-12-22	1967-10-30	"Groningen"			"Herestraat 74"	53.2156	6.56867		"http://www.cinemacontext.nl/id/B000513"
"http://www.cinemacontext.nl/id/B000982"	"Bij de Waag"				1918-01-01	1941-12-31	"Sneek"			"Leeuwenburg"	53.032	5.66017		"http://www.cinemacontext.nl/id/B000982"
"http://www.cinemacontext.nl/id/B000820"	"Witte Bioscoop"				1918-01-01	1929-12-31	"Oisterwijk"			"Stationstraat 8"	51.5809	5.19411		"http://www.cinemacontext.nl/id/B000820"
"http://www.cinemacontext.nl/id/B000391"	"Luxor"				1918-01-01	1985-12-31	"Dordrecht"			"Vischstraat 8-10"	51.8136	4.66601		"http://www.cinemacontext.nl/id/B000391"
"http://www.cinemacontext.nl/id/B000391"	"Luxor"				1918-01-01	1985-12-31	"Dordrecht"			"Visstraat 50 (sinds 1986)"	51.8136	4.66601		"http://www.cinemacontext.nl/id/B000391"
"http://www.cinemacontext.nl/id/B000365"	"Luxor (Brink)"				1918-01-01	1983-12-31	"Deventer"			"Brink 20"	52.2526	6.16123		"http://www.cinemacontext.nl/id/B000365"
"http://www.cinemacontext.nl/id/B000365"	"Luxor (Brink)"				1918-01-01	1983-12-31	"Deventer"			"Brink 23 (tot 1955)"	52.2526	6.16123		"http://www.cinemacontext.nl/id/B000365"
"http://www.cinemacontext.nl/id/B000439"	"Koh-i-noor"				1918-01-01	1920-12-31	"Emmen"			"Stationstraat (Hoofdstraat)"	52.7868	6.89461		"http://www.cinemacontext.nl/id/B000439"
"http://www.cinemacontext.nl/id/B001237"	"Witte Bioscope"	"Voor 1913 had hier de stichting Katholieke Kring haar domicilie. Tot de 'Kring' behoorden o.a. een leesbibliotheek, een toneelvereniging, een handbooggezelschap en een gymnastiekvereniging. In 1913 verbouwd tot bioscoop onder leiding van kapelaan Verschuren om het publiek bij ""slechte"" theaters weg te houden. Tijdens de Eerste Wereldoorlog werd het gebouw gevorderd voor de huisvesting van gemobiliseerde soldaten."			1918-01-01	1920-12-31	"Tilburg"			"Capucijnenstraat 47"	51.5538	5.07702		"http://www.cinemacontext.nl/id/B001237"
"http://www.cinemacontext.nl/id/B001451"	"Royal (Spui)"				1918-01-01	1919-12-31	"Den Haag"			"Spui 118"	52.0771	4.31726		"http://www.cinemacontext.nl/id/B001451"
"http://www.cinemacontext.nl/id/B001255"	"Royal"				1918-01-01	1918-12-31	"Sittard"			"Brandstraat"	50.9985	5.86595		"http://www.cinemacontext.nl/id/B001255"
"http://www.cinemacontext.nl/id/B000139"	"Flora (Wagenstraat)"	"Tot 1913 variété met film onder de naam The Royal Bioscope. Van 1914-1918 Bouwmeester Theater geheten, voornamelijk variété, soms ook een film. Tussen 1951-1953 werd Flora tijdelijk Plaza genoemd."			1918-01-15	1950-12-31	"Den Haag"			"Wagenstraat 79-81"	52.0754	4.31326		"http://www.cinemacontext.nl/id/B000139"
"http://www.cinemacontext.nl/id/B001032"	"Luxor"				1918-01-25	1932-02-15	"Tilburg"			"Heuvel  12"	51.5573	5.09171		"http://www.cinemacontext.nl/id/B001032"
"http://www.cinemacontext.nl/id/B001623"	"Cinema Parisien"	"In de concertzaal van Sociëteit V.O.V."			1918-02-22	1918-12-31	"Goes"			"Schuttershof Schouwburg"	51.5017	3.88934		"http://www.cinemacontext.nl/id/B001623"
"http://www.cinemacontext.nl/id/B000631"	"Royal"	"Tussen maart 1920 en maart 1923 mochten hier geen films worden vertoond om redenen van brandveiligheid. Vanaf november 1924 tot de naamsverandering in december 1926 werden in Royal slechts sporadisch films vertoond."			1918-03-27	1920-03-04	"Hoorn"			"Grote Noord 37"	52.6405	5.05722		"http://www.cinemacontext.nl/id/B000631"
"http://www.cinemacontext.nl/id/B000224"	"Centraal Theater"	"Raadhuisplein 7 heette tot december 1929 Marktplein 5"			1918-04-01	1985-12-31	"Apeldoorn"			"Marktplein 5 (tot 1929)"	52.2154	5.96407		"http://www.cinemacontext.nl/id/B000224"
"http://www.cinemacontext.nl/id/B000224"	"Centraal Theater"	"Raadhuisplein 7 heette tot december 1929 Marktplein 5"			1918-04-01	1985-12-31	"Apeldoorn"			"Raadhuisplein 7"	52.2154	5.96407		"http://www.cinemacontext.nl/id/B000224"
"http://www.cinemacontext.nl/id/B000836"	"Witte Bioscoop"				1918-04-09	1927-12-31	"Oss"			"Molenstraat 89"	51.7634	5.52862		"http://www.cinemacontext.nl/id/B000836"
"http://www.cinemacontext.nl/id/B000095"	"Thalia (B)"				1918-08-01	1922-03-31	"Amsterdam"			"Nieuwendijk 29"	52.3783	4.8955		"http://www.cinemacontext.nl/id/B000095"
"http://www.cinemacontext.nl/id/B000693"	"Luxor"				1918-08-16	2005-12-31	"Leiden"			"Rijnsburgersingel 8 (tot 1912)"	52.1647	4.48428		"http://www.cinemacontext.nl/id/B000693"
"http://www.cinemacontext.nl/id/B000693"	"Luxor"				1918-08-16	2005-12-31	"Leiden"			"Stationsweg 19"	52.1647	4.48428		"http://www.cinemacontext.nl/id/B000693"
"http://www.cinemacontext.nl/id/B000165"	"Gemeentelijke Schoolbioscoop"				1918-08-29	1935-12-31	"Den Haag"			"Hoefkade 602"	52.0682	4.31341		"http://www.cinemacontext.nl/id/B000165"
"http://www.cinemacontext.nl/id/B001452"	"Cinéma Modern"				1918-08-30	1919-12-31	"Den Haag"			"Spui 118"	52.0771	4.31726		"http://www.cinemacontext.nl/id/B001452"
"http://www.cinemacontext.nl/id/B000885"	"Astoria"				1918-09-07	1920-12-31	"Rotterdam"			"Schiekade 203"	51.9253	4.47706		"http://www.cinemacontext.nl/id/B000885"
"http://www.cinemacontext.nl/id/B001584"	"Thalia Bioscope"				1918-09-27	1919-02-28	"Zierikzee"			"Paardenstraat 4"	51.6489	3.9243		"http://www.cinemacontext.nl/id/B001584"
"http://www.cinemacontext.nl/id/B000394"	"De Toekomst"				1918-10-01	1920-12-31	"Dordrecht"			"Steegoversloot 36"	51.8156	4.67125		"http://www.cinemacontext.nl/id/B000394"
"http://www.cinemacontext.nl/id/B000574"	"Flora"				1918-10-01	1923-12-31	"Heerlen"			"Stationsstraat 9"	50.8898	5.97859		"http://www.cinemacontext.nl/id/B000574"
"http://www.cinemacontext.nl/id/B001219"	"Luxor"				1918-10-01	1987-12-31	"Zutphen"			"Houtmarkt 64"	52.1411	6.19622		"http://www.cinemacontext.nl/id/B001219"
"http://www.cinemacontext.nl/id/B000452"	"Palace"				1918-11-01	1972-12-31	"Enschede"			"Van Lochemstraat 10"	52.2223	6.89795		"http://www.cinemacontext.nl/id/B000452"
"http://www.cinemacontext.nl/id/B000642"	"Frisia"				1918-11-01	1924-10-31	"Hoorn"			"Grote Noord 2-4 / Rodesteen"	52.6395	5.05862		"http://www.cinemacontext.nl/id/B000642"
"http://www.cinemacontext.nl/id/B001468"	"Hoornsche Bioscooptheater"				1918-11-23	1919-12-31	"Hoorn"			"Grote Noord 2-4 / Rodesteen"	52.6395	5.05862		"http://www.cinemacontext.nl/id/B001468"
"http://www.cinemacontext.nl/id/B000619"	"Emma (Heisterberg 35)"				1918-12-01	1932-12-31	"Hoensbroek"			"Heisterberg 35"	50.9274	5.93794		"http://www.cinemacontext.nl/id/B000619"
"http://www.cinemacontext.nl/id/B000226"	"Minerva (Paslaan)"				1918-12-06	1984-12-31	"Apeldoorn"			"Paslaan 11"	52.2165	5.96149		"http://www.cinemacontext.nl/id/B000226"
"http://www.cinemacontext.nl/id/B001944"	"Neuf"	"Variété Theater en Bioscoop"			1918-12-12	1924-12-31	"Breda"			"Tolbrugstraat 24"	51.5883	4.7721		"http://www.cinemacontext.nl/id/B001944"
"http://www.cinemacontext.nl/id/B000519"	"Oostergoo Cinema"				1918-12-20	1926-12-31	"Grou"			"Nieuwe Kade 1"	53.0972	5.83884		"http://www.cinemacontext.nl/id/B000519"
"http://www.cinemacontext.nl/id/B000519"	"Oostergoo Cinema"				1918-12-20	1926-12-31	"Grouw (Fr)"			"Nieuwe Kade 1"	53.0972	5.83884		"http://www.cinemacontext.nl/id/B000519"
"http://www.cinemacontext.nl/id/B000906"	"Maatschappij tot Nut van het Algemeen"	"in 1934: Filmkring Nut-V.U."			1919-01-01	1920-06-30	"Rotterdam"			"Oppert 81 (tot 1924)"	51.9221	4.48416		"http://www.cinemacontext.nl/id/B000906"
"http://www.cinemacontext.nl/id/B000906"	"Maatschappij tot Nut van het Algemeen"	"in 1934: Filmkring Nut-V.U."			1919-01-01	1920-06-30	"Rotterdam"			"Oppert 90"	51.9221	4.48416		"http://www.cinemacontext.nl/id/B000906"
"http://www.cinemacontext.nl/id/B000807"	"Olympia"				1919-01-01	1944-12-31	"Nijmegen"			"Lange Burchtstraat 8"	51.8466	5.86724		"http://www.cinemacontext.nl/id/B000807"
"http://www.cinemacontext.nl/id/B000636"	"Apollo"				1919-01-01	1988-12-31	"Huissen (Gld)"			"Langestraat 26 (tot 1956)"	51.9388	5.94194		"http://www.cinemacontext.nl/id/B000636"
"http://www.cinemacontext.nl/id/B000636"	"Apollo"				1919-01-01	1988-12-31	"Huissen (Gld)"			"Langestraat 58"	51.9388	5.94194		"http://www.cinemacontext.nl/id/B000636"
"http://www.cinemacontext.nl/id/B000612"	"Flora"				1919-01-01	1947-12-31	"Hilversum"			"Havenstraat 43"	52.2223	5.16925		"http://www.cinemacontext.nl/id/B000612"
"http://www.cinemacontext.nl/id/B001257"	"R.K. Schoolbioscoop"	"De Patronaats-commissie van de Willibrordusparochie organiseerde vanaf 1919 filmvoorstellingen, o.a. een (Duitse) St Franciscusfilm in oktober 1922."			1919-01-01	1925-12-31	"Amsterdam"			"Sint Willibrordusstraat 19"	52.355	4.90396		"http://www.cinemacontext.nl/id/B001257"
"http://www.cinemacontext.nl/id/B001079"	"CiLeVa"	"Cinema Lemmens Valkenswaard"			1919-01-01	1920-04-30	"Valkenswaard"			"Gemeente"	51.35	5.45845		"http://www.cinemacontext.nl/id/B001079"
"http://www.cinemacontext.nl/id/B001132"	"Modern"				1919-01-01	1925-12-31	"Wageningen"			"Nieuwstraat 448"	51.9658	5.66349		"http://www.cinemacontext.nl/id/B001132"
"http://www.cinemacontext.nl/id/B001185"	"Thalia"				1919-01-01	1960-12-31	"IJmuiden"			"Breesaapstraat 52"	52.4618	4.59174		"http://www.cinemacontext.nl/id/B001185"
"http://www.cinemacontext.nl/id/B000364"	"Cinema Palace"	"Sinds 1969 ""Cinema"" geheten."			1919-01-10	1985-05-18	"Deventer"			"Lange Bisschopsstraat 69"	52.254	6.15846		"http://www.cinemacontext.nl/id/B000364"
"http://www.cinemacontext.nl/id/B000128"	"Centraal Bioscoop Theater"	"CBT"			1919-02-28	1934-12-31	"Den Haag"			"Lange Poten 41"	52.0791	4.31557		"http://www.cinemacontext.nl/id/B000128"
"http://www.cinemacontext.nl/id/B000389"	"Astoria"				1919-03-07	1982-03-30	"Dordrecht"			"Voorstraat 266-268 (tot 1960)"	51.8142	4.6656		"http://www.cinemacontext.nl/id/B000389"
"http://www.cinemacontext.nl/id/B000389"	"Astoria"				1919-03-07	1982-03-30	"Dordrecht"			"Voorstraat 294"	51.8142	4.6656		"http://www.cinemacontext.nl/id/B000389"
"http://www.cinemacontext.nl/id/B000023"	"Passage"				1919-04-03	1959-09-03	"Amsterdam"			"Nieuwendijk 186"	52.3747	4.89367		"http://www.cinemacontext.nl/id/B000023"
"http://www.cinemacontext.nl/id/B000703"	"Rembrandt"				1919-04-05	1920-08-02	"Leiden"			"Hogewoerd 49"	52.1559	4.49543		"http://www.cinemacontext.nl/id/B000703"
"http://www.cinemacontext.nl/id/B000882"	"Apollo (Goudseweg)"				1919-05-01	1922-11-30	"Rotterdam"			"Goudschenweg 124"	51.9271	4.49073		"http://www.cinemacontext.nl/id/B000882"
"http://www.cinemacontext.nl/id/B000882"	"Apollo (Goudseweg)"				1919-05-01	1922-11-30	"Rotterdam"			"Goudseweg 124"	51.9271	4.49073		"http://www.cinemacontext.nl/id/B000882"
"http://www.cinemacontext.nl/id/B001256"	"Martens"				1919-05-01	1919-11-30	"Sittard"			"Putstraat"	50.9971	5.87265		"http://www.cinemacontext.nl/id/B001256"
