"id"	"name"	"streetAddress"	"address.city.country"	"address.city.color"	"addressLocality"	"addressRegion"	"address.city.name"	"address.city.language"	"address.city.id"	"address.street"	"address.id"	"address.position"	"latitude"	"longitude"	"address.geoData"	"openingDate"	"closingDate"	"geoData"	"status"	"seatingRange"	"venueRank"	"venueLocation"	"venueType.0"	"activeCinemaWeight"	"activeCinemaWeightBand"	"revenuePotential"	"turnover"	"priceProxy"	"activeDays"	"top20PerYear"	"topProductionCounty"	"topProductionYear"	"hasVenueImages"
"c2e0885a-20cd-11e9-8054-dc241e2d861b"	"Adriatico"	"237 Corso Sicilia (now Corso Benedetto Croce), in 1962 moved in 67 Via Gioacchino Toma"	"Italy"	"#7db4d3"	"Bari"	"Bari city"	"bari"	"italian"	1	"237 Corso Sicilia (now Corso Benedetto Croce), in 1962 moved in 67 Via Gioacchino Toma"	"6dd3f488-20c7-11e9-8054-dc241e2d861b"		41.108932	16.875687	"41.108932, 16.875687"	"before 1947"	2013	"41.108932, 16.875687"	"Commercial"	"601 – 900"	"Intermediate"	"District"	"Cinema"	0.5798708921	"0.50 – 0.75"	976.8	1	1.32	253	25	"USA"	1950	1
"c2e28f24-20cd-11e9-8054-dc241e2d861b"	"Petruzzelli"	"12 Corso Cavour"	"Italy"	"#7db4d3"	"Bari"	"Bari city"	"bari"	"italian"	1	"12 Corso Cavour"	"6dd4ac20-20c7-11e9-8054-dc241e2d861b"		41.123755	16.872727	"41.123755, 16.872727"	1903	"in use as theatre"	"41.123755, 16.872727"	"Commercial "	"1501+"	"Elite"	"Centre"	"Cinema - Theatre"	5.3784093803	"5.00 – 7.50"	9060	4	3	207	2	"USA"	1952	1
"c2e15f32-20cd-11e9-8054-dc241e2d861b"	"Impero"	"25 Corso Sonnino"	"Italy"	"#7db4d3"	"Bari"	"Bari city"	"bari"	"italian"	1	"25 Corso Sonnino"	"6dd474f8-20c7-11e9-8054-dc241e2d861b"		41.121152	16.877405	"41.121152, 16.877405"	"before 1947"	"1990s"	"41.121152, 16.877405"	"Commercial "	"901 – 1500"	"Elite"	"Centre"	"Cinema"	1.7239404901	"1.00 – 2.00"	4356	4	3	167	6	"USA"	1953	1
"c2e16a2c-20cd-11e9-8054-dc241e2d861b"	"Arena Impero"	"25 Corso Sonnino"	"Italy"	"#7db4d3"	"Bari"	"Bari city"	"bari"	"italian"	1	"25 Corso Sonnino"	"6dd477aa-20c7-11e9-8054-dc241e2d861b"		41.121152	16.877405	"41.121152, 16.877405"	"before 1947"	"1980s"	"41.121152, 16.877405"	"Commercial "	"Under 300"	"Seasonal"	"Centre"	"Open Air Cinema"	0.0890465129	"Up To 0.10"	225	2	0.75	95		"USA"	1951	
"c2e21558-20cd-11e9-8054-dc241e2d861b"	"Lonigro"	"Via Trani (now 61/B Via Ettore Carafa)"	"Italy"	"#7db4d3"	"Bari"	"Bari city"	"bari"	"italian"	1	"Via Trani (now 61/B Via Ettore Carafa)"	"6dd490c8-20c7-11e9-8054-dc241e2d861b"		41.113285	16.863267	"41.113285, 16.863267"	1951	"1980s"	"41.113285, 16.863267"	"Commercial "	"601 – 900"	"Intermediate"	"District"	"Cinema"	0.1726315064	"0.10 – 0.20"	872.4	1	1.2	67	5	"USA"	1952	
"c2e3012a-20cd-11e9-8054-dc241e2d861b"	"S. Francesco and Arena S. Francesco"	"Piazza Garibaldi"	"Italy"	"#7db4d3"	"Bari"	"Bari city"	"bari"	"italian"	1	"Piazza Garibaldi"	"6dd4de84-20c7-11e9-8054-dc241e2d861b"		41.125882	16.862826	"41.125882, 16.862826"	1951	"maybe 1972"	"41.125882, 16.862826"	"Parish "	"Under 300"	"Seasonal"	"Centre"	"Open Air Cinema"	0.0168198969	"Up To 0.10"	85	1	1	65	3	"Italy"	1950	
"c2e1ff50-20cd-11e9-8054-dc241e2d861b"	"Arena Japigia"	"Viale Japigia"	"Italy"	"#7db4d3"	"Bari"	"Bari city"	"bari"	"italian"	1	"Viale Japigia"	"6dd487ea-20c7-11e9-8054-dc241e2d861b"		41.113983	16.896077	"41.113983, 16.896077"	1953	1961	"41.113983, 16.896077"	"Commercial "	"301 – 600"	"Seasonal"	"District"	"Open Air Cinema"	0.0529826752	"Up To 0.10"	267.75	1	0.75	26		"Italy"	1950	
"c2e2c548-20cd-11e9-8054-dc241e2d861b"	"Redentore"	"44 Via Monsignore Francesco Nitti"	"Italy"	"#7db4d3"	"Bari"	"Bari city"	"bari"	"italian"	1	"44 Via Monsignore Francesco Nitti"	"6dd4c39a-20c7-11e9-8054-dc241e2d861b"		41.118931	16.85434	"41.118931, 16.854340"	"December 7th 1958"	"late '80s"	"41.118931, 16.854340"	"Parish"	"601 – 900"	"Inactive"	"Centre"	"Cinema"	0.1335697694	"0.10 – 0.20"	675		0.75					1
"c2e277f0-20cd-11e9-8054-dc241e2d861b"	"Odeon"	"119 Via Re David"	"Italy"	"#7db4d3"	"Bari"	"Bari city"	"bari"	"italian"	1	"119 Via Re David"	"6dd4a20c-20c7-11e9-8054-dc241e2d861b"		41.114301	16.87557	"41.114301, 16.875570"	1955	"first decade of 2000s"	"41.114301, 16.875570"	"Commercial "	"601 – 900"	"Inactive"	"District"	"Cinema"	0.1009193813	"0.10 – 0.20"	510		0.75					1
"c2e0b910-20cd-11e9-8054-dc241e2d861b"	"Cappuccini"	"96 Via Abbrescia"	"Italy"	"#7db4d3"	"Bari"	"Bari city"	"bari"	"italian"	1	"96 Via Abbrescia"	"6dd4054a-20c7-11e9-8054-dc241e2d861b"		41.122988	16.875786	"41.122988, 16.875786"	1951	1959	"41.122988, 16.875786"	"Parish"	"Under 300"	"Inactive"	"Centre"	"Cinema"	0.0228552716	"Up To 0.10"	115.5		0.75					
"c2e0f574-20cd-11e9-8054-dc241e2d861b"	"Casa del Soldato"	"8 Piazza Balenzano"	"Italy"	"#7db4d3"	"Bari"	"Bari city"	"bari"	"italian"	1	"8 Piazza Balenzano"	"6dd45e64-20c7-11e9-8054-dc241e2d861b"		41.119753	16.875918	"41.119753, 16.875918"	"1930s"	"1990s"	"41.119753, 16.875918"	"Military"	"601 – 900"	"Inactive"	"Centre"	"Cinema"	0.1038875984	"0.10 – 0.20"	525		0.75					
"c2e3c54c-20cd-11e9-8054-dc241e2d861b"	"Lucerna"	"Minska 19"	"Czech Republic"	"#cdd28f"	"Brno"	"Brno"	"brno"	"czech"	2	"Minska 19"	"6dd54b08-20c7-11e9-8054-dc241e2d861b"		49.210526	16.585361	"49.210526, 16.585361"	1915	"till today"	"49.210526, 16.585361"	"State controlled"	"301 – 600"	"Minor"	"District"	"Cinema"	0.2517048099	"0.20 – 0.50"	318	3	1	323	51	"Soviet Union"	1951	1
"c2e3cb50-20cd-11e9-8054-dc241e2d861b"	"Lumir"	"Vyhon 1"	"Czech Republic"	"#cdd28f"	"Brno"	"Brno"	"brno"	"czech"	2	"Vyhon 1"	"6dd54dc4-20c7-11e9-8054-dc241e2d861b"		49.225371	16.526657	"49.225371, 16.526657"	1927	1974	"49.225371, 16.526657"	"State controlled"	"301 – 600"	"Inactive"	"Suburb"	"Cinema"	0.0771736445	"Up To 0.10"	390		0.75					
"c2e3e8d8-20cd-11e9-8054-dc241e2d861b"	"Oko"	"Palackeho trida 29"	"Czech Republic"	"#cdd28f"	"Brno"	"Brno"	"brno"	"czech"	2	"Palackeho trida 29"	"6dd55dd2-20c7-11e9-8054-dc241e2d861b"		49.221866	16.595619	"49.221866, 16.595619"	1911	2004	"49.221866, 16.595619"	"State controlled"	"301 – 600"	"Minor"	"Suburb"	"Cinema"	0.3133249968	"0.20 – 0.50"	395.85	3	1.05	324	21	"Soviet Union"	1951	1
"c2e40ca0-20cd-11e9-8054-dc241e2d861b"	"Sibir"	"Dukelska trida 52"	"Czech Republic"	"#cdd28f"	"Brno"	"Brno"	"brno"	"czech"	2	"Dukelska trida 52"	"6dd569f8-20c7-11e9-8054-dc241e2d861b"		49.211529	16.633916	"49.211529, 16.633916"	1911	1968	"49.211529, 16.633916"	"State controlled"	"301 – 600"	"Minor"	"Suburb"	"Cinema"	0.4153841735	"0.20 – 0.50"	524.79	3	1.19	320	21	"Soviet Union"	1951	
"c2e3141c-20cd-11e9-8054-dc241e2d861b"	"S. Nicola"	"16 Corso Trieste"	"Italy"	"#7db4d3"	"Bari"	"Bari city"	"bari"	"italian"	1	"16 Corso Trieste"	"6dd4f0b8-20c7-11e9-8054-dc241e2d861b"		41.117155	16.893574	"41.117155, 16.893574"	1951	1956	"41.117155, 16.893574"	"Educational (from 1953 Commercial)"	"Under 300"	"Minor"	"Centre"	"Cinema"	0.0130601552	"Up To 0.10"	66	1	0.75	64		"USA"	1949	
"c2e31bb0-20cd-11e9-8054-dc241e2d861b"	"Arena S. Nicola"	"Via Porto Nuovo"	"Italy"	"#7db4d3"	"Bari"	"Bari city"	"bari"	"italian"	1	"Via Porto Nuovo"	"6dd4f450-20c7-11e9-8054-dc241e2d861b"		41.132575	16.869746	"41.132575, 16.869746"	"pre 1950s"	1959	"41.132575, 16.869746"	"Commercial "	"Under 300"	"Inactive"	"Centre"	"Open Air Cinema"	0.0189965894	"Up To 0.10"	96		0.75					
"c2e32880-20cd-11e9-8054-dc241e2d861b"	"Arena S. Pasquale"	"58 Via Carlo Pisacane"	"Italy"	"#7db4d3"	"Bari"	"Bari city"	"bari"	"italian"	1	"58 Via Carlo Pisacane"	"6dd4f932-20c7-11e9-8054-dc241e2d861b"		41.113873	16.876892	"41.113873, 16.876892"	1951	"after 1963"	"41.113873, 16.876892"	"Parish "	"301 – 600"	"Seasonal"	"District"	"Open Air Cinema"	0.0643113704	"Up To 0.10"	325	1	1	71	2	"USA"	1949	1
"c2e3b8a4-20cd-11e9-8054-dc241e2d861b"	"Letni kino Zimni stadion"	"Sportovni 2"	"Czech Republic"	"#cdd28f"	"Brno"	"Brno"	"brno"	"czech"	2	"Sportovni 2"	"6dd54554-20c7-11e9-8054-dc241e2d861b"		49.211196	16.609464	"49.211196, 16.609464"	1948	1961	"49.211196, 16.609464"	"State controlled"	"1501+"	"Seasonal"	"District"	"Open Air Cinema"	0.833317056	"0.75 – 1.00"	4211.2	1	1.4	75	25	"Czechoslovakia"	1951	1
"c2e34e00-20cd-11e9-8054-dc241e2d861b"	"Terrazza Fiorita"	"117 Corso Cavour on the corner of Via Dante Alighieri"	"Italy"	"#7db4d3"	"Bari"	"Bari city"	"bari"	"italian"	1	"117 Corso Cavour on the corner of Via Dante Alighieri"	"6dd51304-20c7-11e9-8054-dc241e2d861b"		41.122407	16.87222	"41.122407, 16.872220"	"June 24th 1948"	1956	"41.122407, 16.872220"	"Commercial "	"Under 300"	"Seasonal"	"Centre"	"Open Air Cinema"	0.1187286839	"0.10 – 0.20"	600	4	3	51	1	"USA"	1950	
"c2e3891a-20cd-11e9-8054-dc241e2d861b"	"Dukla"	"Kounicova 22"	"Czech Republic"	"#cdd28f"	"Brno"	"Brno"	"brno"	"czech"	2	"Kounicova 22"	"6dd53258-20c7-11e9-8054-dc241e2d861b"		49.203448	16.600279	"49.203448, 16.600279"	1923	1974	"49.203448, 16.600279"	"State controlled"	"301 – 600"	"Minor"	"District"	"Cinema"	0.1642255156	"0.10 – 0.20"	829.92	4	1.33	33	3	"Czechoslovakia"	1950	
"c2e38f0a-20cd-11e9-8054-dc241e2d861b"	"Hvezda"	"Svratecka 11"	"Czech Republic"	"#cdd28f"	"Brno"	"Brno"	"brno"	"czech"	2	"Svratecka 11"	"6dd53546-20c7-11e9-8054-dc241e2d861b"		49.217556	16.553303	"49.217556, 16.553303"	1927		"49.217556, 16.553303"	"State controlled"	"Under 300"	"Inactive"	"Suburb"	"Cinema"	0.0415550394	"Up To 0.10"	210		0.75					
"c2e36336-20cd-11e9-8054-dc241e2d861b"	"Vittoria"	"not given"	"Italy"	"#7db4d3"	"Bari"	"Bari - Torre a Mare"	"bari"	"italian"	1	"not given"	"6dd51d4a-20c7-11e9-8054-dc241e2d861b"				"0, 0"	"before 1950"	"Feb-51"		"Commercial "	"601 – 900"	"Inactive"	"Suburb"	"Cinema"	0.101216203	"0.10 – 0.20"	511.5		0.75					
"c2e3ab66-20cd-11e9-8054-dc241e2d861b"	"Kohoutovice"	"Basneho 15"	"Czech Republic"	"#cdd28f"	"Brno"	"Brno"	"brno"	"czech"	2	"Basneho 15"	"6dd5405e-20c7-11e9-8054-dc241e2d861b"		49.192765	16.535769	"49.192765, 16.535769"	1950	1964	"49.192765, 16.535769"	"State controlled"	"301 – 600"	"Inactive"	"Suburb"	"Cinema"	0.0771736445	"Up To 0.10"	390		0.75					
"c2ecce12-20cd-11e9-8054-dc241e2d861b"	"Lorensberg"	"Lorensbergsparken"	"Sweden"	"#b28ed8"	"Göteborg"	"Göteborg"	"gothenburg"	"swedish"	4	"Lorensbergsparken"	"6dd86c5c-20c7-11e9-8054-dc241e2d861b"		57.698394	11.979774	"57.698394, 11.979774"	1934	1987	"57.698394, 11.979774"	"Commercial"	"601 – 900"	"Major"	"Centre"	"Cinema"	2.0326350682	"2.00 – 5.00"	2568	14	3	344	6	"USA"	1952	1
"c2ecdb3c-20cd-11e9-8054-dc241e2d861b"	"Mignon"	"Linnégatan 64"	"Sweden"	"#b28ed8"	"Göteborg"	"Göteborg"	"gothenburg"	"swedish"	4	"Linnégatan 64"	"6dd87300-20c7-11e9-8054-dc241e2d861b"		57.692268	11.953144	"57.692268, 11.953144"	1941	1982	"57.692268, 11.953144"	"Commercial"	"Under 300"	"Minor"	"District"	"Cinema"	0.1440574698	"0.10 – 0.20"	182	6	1	358	22	"USA"	1950	1
"c2ecc548-20cd-11e9-8054-dc241e2d861b"	"Lillan"	"Kyrkogatan 19"	"Sweden"	"#b28ed8"	"Göteborg"	"Göteborg"	"gothenburg"	"swedish"	4	"Kyrkogatan 19"	"6dd86798-20c7-11e9-8054-dc241e2d861b"		57.705066	11.96699	"57.705066, 11.966990"	1935	1960	"57.705066, 11.966990"	"Commercial"	"Under 300"	"Minor"	"Centre"	"Cinema"	0.2522272161	"0.20 – 0.50"	318.66	5	1.13	358	8	"USA"	1952	
"c2e9d6da-20cd-11e9-8054-dc241e2d861b"	"Royal"	"Sleepstraat"	"Belgium"	"#65be4a"	"Gent"	"Gent"	"gent"	"dutch"	3	"Sleepstraat"	"6dd6d9fa-20c7-11e9-8054-dc241e2d861b"		51.06111	3.726066	"51.061110, 3.726066"	1914	1972	"51.061110, 3.726066"	"Commercial"	"601 – 900"	"Intermediate"	"District"	"Cinema"	0.8738431134	"0.75 – 1.00"	1104	7	1.38	352	34	"USA"	1951	1
"c2e348a6-20cd-11e9-8054-dc241e2d861b"	"Supercinema"	"143-147 Via Ravanas"	"Italy"	"#7db4d3"	"Bari"	"Bari city"	"bari"	"italian"	1	"143-147 Via Ravanas"	"6dd50d00-20c7-11e9-8054-dc241e2d861b"		41.123295	16.858659	"41.123295, 16.858659"	"Sep-24"	"1980s"	"41.123295, 16.858659"	"Commercial "	"901 – 1500"	"Major"	"Centre"	"Cinema"	2.1719433907	"2.00 – 5.00"	2744	1	1.96	345	25	"USA"	1951	
"c2ebdc14-20cd-11e9-8054-dc241e2d861b"	"Aveny"	"Kungsportsavenyn 25"	"Sweden"	"#b28ed8"	"Göteborg"	"Göteborg"	"gothenburg"	"swedish"	4	"Kungsportsavenyn 25"	"6dd6efe4-20c7-11e9-8054-dc241e2d861b"		57.6997293	11.975312	"57.6997293, 11.975312"	1939	1997	"57.6997293, 11.975312"	"Commercial"	"601 – 900"	"Major"	"Centre"	"Cinema"	1.6408304114	"1.00 – 2.00"	2073	10	3	355	3	"USA"	1952	1
"c2e794ce-20cd-11e9-8054-dc241e2d861b"	"Ideal"	"Wondelgemstraat"	"Belgium"	"#65be4a"	"Gent"	"Gent"	"gent"	"dutch"	3	"Wondelgemstraat"	"6dd5cbc8-20c7-11e9-8054-dc241e2d861b"		51.061458	3.710254	"51.061458, 3.710254"	1926	1968	"51.061458, 3.710254"	"Commercial"	"301 – 600"	"Intermediate"	"District"	"Cinema"	0.6787323096	"0.50 – 0.75"	857.5	7	1.75	352	4	"USA"	1950	1
"c2e77f84-20cd-11e9-8054-dc241e2d861b"	"Ganda"	"Bevrijdingslaan"	"Belgium"	"#65be4a"	"Gent"	"Gent"	"gent"	"dutch"	3	"Bevrijdingslaan"	"6dd5c3f8-20c7-11e9-8054-dc241e2d861b"		51.06228	3.699335	"51.062280, 3.699335"	1921	1964	"51.062280, 3.699335"	"Commercial"	"301 – 600"	"Minor"	"District"	"Cinema"	0.5441731345	"0.50 – 0.75"	687.5	7	1.25	350	4	"USA"	1950	1
"c2e97492-20cd-11e9-8054-dc241e2d861b"	"Rex"	"Koningin Maria Hendrikaplein"	"Belgium"	"#65be4a"	"Gent"	"Gent"	"gent"	"dutch"	3	"Koningin Maria Hendrikaplein"	"6dd6cf32-20c7-11e9-8054-dc241e2d861b"		51.037264	3.711658	"51.037264, 3.711658"	1933	1985	"51.037264, 3.711658"	"Commercial"	"601 – 900"	"Major"	"Centre"	"Cinema"	1.56246948	"1.00 – 2.00"	1974	7	2.82	360	17	"USA"	1951	1
"c2ebe286-20cd-11e9-8054-dc241e2d861b"	"Biorama"	"Södra Allégatan 2"	"Sweden"	"#b28ed8"	"Göteborg"	"Göteborg"	"gothenburg"	"swedish"	4	"Södra Allégatan 2"	"6dd731c0-20c7-11e9-8054-dc241e2d861b"		57.6997303	11.9552548	"57.6997303, 11.9552548"	1911	1989	"57.6997303, 11.9552548"	"Commercial"	"Under 300"	"Minor"	"District"	"Cinema"	0.0779156988	"Up To 0.10"	131.25	7	0.75	193		"USA"	1950	1
"c2eed5fe-20cd-11e9-8054-dc241e2d861b"	"Roxy"	"Fullhurst Avenue, 5"	"United Kingdom"	"#f69899"	"Leicester"	"Leicester"	"leicester"	"english"	5	"Fullhurst Avenue, 5"	"6dd8f938-20c7-11e9-8054-dc241e2d861b"		52.6193	-1.16017	"52.6193, -1.16017"	1936	1969	"52.6193, -1.16017"	"Commercial"	"1501+"	"Major"	"District"	"Cinema"	1.6242083956	"1.00 – 2.00"	2052	3	1.14	329	44	"USA"	1951	
"c2ee5ae8-20cd-11e9-8054-dc241e2d861b"	"Carlton"	"Gipsy Lane, 112"	"United Kingdom"	"#f69899"	"Leicester"	"Leicester"	"leicester"	"english"	5	"Gipsy Lane, 112"	"6dd8b6c6-20c7-11e9-8054-dc241e2d861b"		52.65498	-1.10766	"52.65498, -1.10766"	1938	1969	"52.65498, -1.10766"	"Commercial"	"901 – 1500"	"Intermediate"	"District"	"Cinema"	1.0321480253	"1.00 – 2.00"	1304	3	1	328	34	"USA"	1951	
"c2ed78bc-20cd-11e9-8054-dc241e2d861b"	"Saga"	"Sofiagatan 2 "	"Sweden"	"#b28ed8"	"Göteborg"	"Göteborg"	"gothenburg"	"swedish"	4	"Sofiagatan 2 "	"6dd8990c-20c7-11e9-8054-dc241e2d861b"		57.71803	12.015846	"57.718030, 12.015846"	1942	1964	"57.718030, 12.015846"	"Commercial"	"301 – 600"	"Intermediate"	"Suburb"	"Cinema"	0.7365531786	"0.50 – 0.75"	930.55	5	1.85	280	13	"USA"	1952	1
"c2ece190-20cd-11e9-8054-dc241e2d861b"	"Nya Teatern"	"Järntorget 8"	"Sweden"	"#b28ed8"	"Göteborg"	"Göteborg"	"gothenburg"	"swedish"	4	"Järntorget 8"	"6dd8768e-20c7-11e9-8054-dc241e2d861b"		57.699889	11.953905	"57.699889, 11.953905"	1925	1955	"57.699889, 11.953905"	"Commercial"	"601 – 900"	"Intermediate"	"District"	"Cinema"	0.810014573	"0.75 – 1.00"	1023.36	7	1.23	360	22	"USA"	1952	
"c2ee53c2-20cd-11e9-8054-dc241e2d861b"	"Cameo"	"High Street, 40-50"	"United Kingdom"	"#f69899"	"Leicester"	"Leicester"	"leicester"	"english"	5	"High Street, 40-50"	"6dd8b306-20c7-11e9-8054-dc241e2d861b"		52.63582	-1.13463	"52.63582, -1.13463"	1910	1976	"52.63582, -1.13463"	"Commercial"	"301 – 600"	"Minor"	"Centre"	"Cinema"	0.1442553509	"0.10 – 0.20"	364.5	3	0.75	116		"USA"	1950	1
"c2ed1a16-20cd-11e9-8054-dc241e2d861b"	"Royal"	"Kungsportsavenyn 45 "	"Sweden"	"#b28ed8"	"Göteborg"	"Göteborg"	"gothenburg"	"swedish"	4	"Kungsportsavenyn 45 "	"6dd890b0-20c7-11e9-8054-dc241e2d861b"		57.697799	11.978274	"57.697799, 11.978274"	1940	2008	"57.697799, 11.978274"	"Commercial"	"301 – 600"	"Intermediate"	"District"	"Cinema"	1.127922497	"1.00 – 2.00"	1425	8	2.85	359	13	"Sweden"	1952	1
"c2ed1fde-20cd-11e9-8054-dc241e2d861b"	"Röda Lyktan"	"Södra Allégatan 6 "	"Sweden"	"#b28ed8"	"Göteborg"	"Göteborg"	"gothenburg"	"swedish"	4	"Södra Allégatan 6 "	"6dd89362-20c7-11e9-8054-dc241e2d861b"		57.699274	11.9581	"57.699274, 11.958100"	1929	1960	"57.699274, 11.958100"	"Commercial"	"301 – 600"	"Minor"	"District"	"Cinema"	0.3427301342	"0.20 – 0.50"	433	7	1	273	14	"USA"	1950	
"c2e4507a-20cd-11e9-8054-dc241e2d861b"	"Svoboda"	"Hlinky 5"	"Czech Republic"	"#cdd28f"	"Brno"	"Brno"	"brno"	"czech"	2	"Hlinky 5"	"6dd58f5a-20c7-11e9-8054-dc241e2d861b"		49.190604	16.590768	"49.190604, 16.590768"	1911	1962	"49.190604, 16.590768"	"State controlled"	"Under 300"	"Minor"	"District"	"Cinema"	0.2374573678	"0.20 – 0.50"	300	3	1	319	21	"Soviet Union"	1951	1
"c2e42aa0-20cd-11e9-8054-dc241e2d861b"	"Slovan"	"Stolcova 6"	"Czech Republic"	"#cdd28f"	"Brno"	"Brno"	"brno"	"czech"	2	"Stolcova 6"	"6dd56ffc-20c7-11e9-8054-dc241e2d861b"		49.189602	16.635529	"49.189602, 16.635529"	1929	1970	"49.189602, 16.635529"	"State controlled"	"301 – 600"	"Minor"	"Suburb"	"Cinema"	0.4036775252	"0.20 – 0.50"	510	3	1	323	45	"Soviet Union"	1951	
"c2ef450c-20cd-11e9-8054-dc241e2d861b"	"Elbe Lichtspiele"	"Karl Schmidt Str. 7"	"Germany"	"#fce267"	"Magdeburg"	"Magdeburg"	"magdeburg"	"german"	6	"Karl Schmidt Str. 7"	"6dd9211a-20c7-11e9-8054-dc241e2d861b"		52.106384	11.637173	"52.106384, 11.637173"	1932	"1959+"	"52.106384, 11.637173"	"State controlled"	"Under 300"	"Minor"	"District"	"Cinema"	0.2276741242	"0.20 – 0.50"	287.64	5	1.02	326	55	"Czechoslovakia"	1951	
"c2e45d72-20cd-11e9-8054-dc241e2d861b"	"Vesmir"	"Stromovka 6"	"Czech Republic"	"#cdd28f"	"Brno"	"Brno"	"brno"	"czech"	2	"Stromovka 6"	"6dd59964-20c7-11e9-8054-dc241e2d861b"		49.208954	16.551345	"49.208954, 16.551345"	1930	1978	"49.208954, 16.551345"	"State controlled"	"Under 300"	"Inactive"	"Suburb"	"Cinema"	0.0333924423	"Up To 0.10"	168.75		0.75					
"c2e462fe-20cd-11e9-8054-dc241e2d861b"	"Vitez"	"Bohunicka"	"Czech Republic"	"#cdd28f"	"Brno"	"Brno"	"brno"	"czech"	2	"Bohunicka"	"6dd59d2e-20c7-11e9-8054-dc241e2d861b"		49.163079	16.598676	"49.163079, 16.598676"	1928	1975	"49.163079, 16.598676"	"State controlled"	"Under 300"	"Inactive"	"Suburb"	"Cinema"	0.0326503881	"Up To 0.10"	165		0.75					
"c2ecf612-20cd-11e9-8054-dc241e2d861b"	"Palladium"	"Lilla Nygatan 2 (Kungsportsplatsen) "	"Sweden"	"#b28ed8"	"Göteborg"	"Göteborg"	"gothenburg"	"swedish"	4	"Lilla Nygatan 2 (Kungsportsplatsen) "	"6dd87f4e-20c7-11e9-8054-dc241e2d861b"		57.704469	11.970683	"57.704469, 11.970683"	1919	2008	"57.704469, 11.970683"	"Commercial"	"901 – 1500"	"Major"	"Centre"	"Cinema"	2.3475351989	"2.00 – 5.00"	2965.84	7	2.83	354	6	"USA"	1951	1
"c2eea7aa-20cd-11e9-8054-dc241e2d861b"	"Odeon"	"Rutland Street"	"United Kingdom"	"#f69899"	"Leicester"	"Leicester"	"leicester"	"english"	5	"Rutland Street"	"6dd8e312-20c7-11e9-8054-dc241e2d861b"		52.63521	-1.12697	"52.63521, -1.12697"	1938	1997	"52.63521, -1.12697"	"Commercial"	"1501+"	"Elite"	"Centre"	"Cinema"	4.7491473557	"2.00 – 5.00"	6000	3	3	364	12	"USA"	1952	1
"c2eee918-20cd-11e9-8054-dc241e2d861b"	"Shaftesbury Picture House"	"Overton Road, 6/Uppingham Road"	"United Kingdom"	"#f69899"	"Leicester"	"Leicester"	"leicester"	"english"	5	"Overton Road, 6/Uppingham Road"	"6dd90d4c-20c7-11e9-8054-dc241e2d861b"		52.64251	-1.10402	"52.64251, -1.10402"	1914	1962	"52.64251, -1.10402"	"Commercial"	"601 – 900"	"Intermediate"	"District"	"Cinema"	0.9545786185	"0.75 – 1.00"	1206	2	1.5	362	26	"USA"	1951	1
"c2ef1fbe-20cd-11e9-8054-dc241e2d861b"	"Star Picture House"	"Belgrave Gate"	"United Kingdom"	"#f69899"	"Leicester"	"Leicester"	"leicester"	"english"	5	"Belgrave Gate"	"6dd912ec-20c7-11e9-8054-dc241e2d861b"		52.641179	-1.129632	"52.641179, -1.129632"	"-"	"-"	"52.641179, -1.129632"	"Commercial"	"301 – 600"	"Inactive"	"Centre"	"Cinema"	0.0742054274	"Up To 0.10"	375		0.75					
"c2ef4a66-20cd-11e9-8054-dc241e2d861b"	"Gloria Lichtspiele"	"Am Schöppensteg 94"	"Germany"	"#fce267"	"Magdeburg"	"Magdeburg"	"magdeburg"	"german"	6	"Am Schöppensteg 94"	"6dd92390-20c7-11e9-8054-dc241e2d861b"		52.165222	11.649646	"52.165222, 11.649646"	1941	1954	"52.165222, 11.649646"	"State controlled"	"601 – 900"	"Intermediate"	"District"	"Cinema"	0.9261787173	"0.75 – 1.00"	1170.12	6	1.47	336	53	"Soviet Union"	1951	1
"c2ef5aba-20cd-11e9-8054-dc241e2d861b"	"Linden Lichtspiele"	"Alt Diesdorf 7"	"Germany"	"#fce267"	"Magdeburg"	"Diesdorf"	"magdeburg"	"german"	6	"Alt Diesdorf 7"	"6dd92c5a-20c7-11e9-8054-dc241e2d861b"		52.130597	11.566215	"52.130597, 11.566215"	1930	"1959+"	"52.130597, 11.566215"	"State controlled"	"Under 300"	"Minor"	"Suburb"	"Cinema"	0.1608120659	"0.10 – 0.20"	270.89	5	1.03	252	33	"Soviet Union"	1951	
"c2ef79c8-20cd-11e9-8054-dc241e2d861b"	"Palast-Theater Sudenburg"	"Braunschweiger Str. 25"	"Germany"	"#fce267"	"Magdeburg"	"Magdeburg"	"magdeburg"	"german"	6	"Braunschweiger Str. 25"	"6dd98e98-20c7-11e9-8054-dc241e2d861b"		52.112636	11.599209	"52.112636, 11.599209"	1926	1953	"52.112636, 11.599209"	"State controlled"	"901 – 1500"	"Intermediate"	"District"	"Cinema"	1.0215099352	"1.00 – 2.00"	1290.56	5	1.09	291	53	"Czechoslovakia"	1951	
"c2efc3b0-20cd-11e9-8054-dc241e2d861b"	"Volkslichtspiele"	"Halberstädter Str. 59"	"Germany"	"#fce267"	"Magdeburg"	"Magdeburg"	"magdeburg"	"german"	6	"Halberstädter Str. 59"	"6dd9a57c-20c7-11e9-8054-dc241e2d861b"		52.113576	11.609451	"52.113576, 11.609451"	1946	"1959+"	"52.113576, 11.609451"	"State controlled"	"301 – 600"	"Minor"	"District"	"Cinema"	0.4147588691	"0.20 – 0.50"	524	8	1	350	29	"Soviet Union"	1951	
"c2f06ac2-20cd-11e9-8054-dc241e2d861b"	"Rex"	"1e Middellandstraat 115a"	"Netherlands"	"#e791ce"	"Rotterdam"	"Rotterdam"	"rotterdam"	"dutch"	7	"1e Middellandstraat 115a"	"6dd9da60-20c7-11e9-8054-dc241e2d861b"		51.918544	4.459749	"51.918544, 4.459749"	1943	1996	"51.918544, 4.459749"	"Commercial"	"301 – 600"	"Minor"	"Centre"	"Cinema"	0.366349227	"0.20 – 0.50"	462.84	7	1.33	345	6	"USA"	1950	1
"c2f071e8-20cd-11e9-8054-dc241e2d861b"	"Scala"	"Westblaak 18"	"Netherlands"	"#e791ce"	"Rotterdam"	"Rotterdam"	"rotterdam"	"dutch"	7	"Westblaak 18"	"6dd9dd12-20c7-11e9-8054-dc241e2d861b"		51.917166	4.47885	"51.917166, 4.478850"	1957	1958	"51.917166, 4.478850"	"Commercial"	"901 – 1500"	"Inactive"	"Centre"	"Cinema"	0.2226162823	"0.20 – 0.50"	1125		0.75					1
"c2f0871e-20cd-11e9-8054-dc241e2d861b"	"Passage"	"Passage 9"	"Netherlands"	"#e791ce"	"Rotterdam"	"Schiedam"	"rotterdam"	"dutch"	7	"Passage 9"	"6dd9e5e6-20c7-11e9-8054-dc241e2d861b"		51.91531	4.40121	"51.91531, 4.40121"	1933	1982	"51.91531, 4.40121"	"Commercial"	"901 – 1500"	"Major"	"District"	"Cinema"	1.3610264797	"1.00 – 2.00"	1719.5	5	1.81	348	31	"USA"	1952	1
"c2e21e7c-20cd-11e9-8054-dc241e2d861b"	"Margherita"	"Lungomare C. Colombo (then 3 Piazza IV Novembre)"	"Italy"	"#7db4d3"	"Bari"	"Bari city"	"bari"	"italian"	1	"Lungomare C. Colombo (then 3 Piazza IV Novembre)"	"6dd49384-20c7-11e9-8054-dc241e2d861b"		41.126239	16.872301	"41.126239, 16.872301"	1914	1979	"41.126239, 16.872301"	"Commercial "	"1501+"	"Elite"	"Centre"	"Cinema"	3.6726739551	"2.00 – 5.00"	4640	5	2.9	350	10	"USA"	1952	1
"c2e0b00a-20cd-11e9-8054-dc241e2d861b"	"Aurora"	"112 Via Napoli, in 1953-4 moved in 214 Via Napoli"	"Italy"	"#7db4d3"	"Bari"	"Bari city"	"bari"	"italian"	1	"112 Via Napoli, in 1953-4 moved in 214 Via Napoli"	"6dd40284-20c7-11e9-8054-dc241e2d861b"		41.127053	16.859694	"41.127053, 16.859694"	"before 1947"	"2000s"	"41.127053, 16.859694"	"Commercial (from 1953 Workers' Corporate Recreational Club)"	"Under 300"	"Minor"	"Suburb"	"Cinema - Theatre"	0.2896979887	"0.20 – 0.50"	366	1	1.22	276	9	"USA"	1949	
"c2e11914-20cd-11e9-8054-dc241e2d861b"	"Galleria"	"Via C. Rosselli (now 15-17 Corso Italia)"	"Italy"	"#7db4d3"	"Bari"	"Bari city"	"bari"	"italian"	1	"Via C. Rosselli (now 15-17 Corso Italia)"	"6dd46a44-20c7-11e9-8054-dc241e2d861b"		41.118964	16.868566	"41.118964, 16.868566"	"February 8th 1948"	"in use"	"41.118964, 16.868566"	"Commercial "	"1501+"	"Elite"	"Centre"	"Cinema"	4.1555039362	"2.00 – 5.00"	5250	4	3	332	11	"USA"	1952	1
"c2e3a472-20cd-11e9-8054-dc241e2d861b"	"Jas"	"Dukelska trida 11"	"Czech Republic"	"#cdd28f"	"Brno"	"Brno"	"brno"	"czech"	2	"Dukelska trida 11"	"6dd53dfc-20c7-11e9-8054-dc241e2d861b"		49.213227	16.63614	"49.213227, 16.636140"	1929		"49.213227, 16.636140"	"State controlled"	"301 – 600"	"Minor"	"Suburb"	"Cinema"	0.4899853632	"0.20 – 0.50"	619.04	4	1.06	317	49	"Soviet Union"	1951	1
"c2e2a356-20cd-11e9-8054-dc241e2d861b"	"Postelegrafonici"	"222 Via S. Visconti"	"Italy"	"#7db4d3"	"Bari"	"Bari city"	"bari"	"italian"	1	"222 Via S. Visconti"	"6dd4b08a-20c7-11e9-8054-dc241e2d861b"		41.119217	16.86365	"41.119217, 16.863650"	1925	"1980s"	"41.119217, 16.863650"	"Workers' Corporate Recreational Club"	"Under 300"	"Minor"	"Centre"	"Cinema"	0.1038875984	"0.10 – 0.20"	262.5	1	1.25	146	8	"USA"	1951	
"c2e1f730-20cd-11e9-8054-dc241e2d861b"	"Japigia"	"142/D Corso Sonnino, on the corner of Via Corfù"	"Italy"	"#7db4d3"	"Bari"	"Bari city"	"bari"	"italian"	1	"142/D Corso Sonnino, on the corner of Via Corfù"	"6dd4852e-20c7-11e9-8054-dc241e2d861b"		41.118582	16.88485	"41.118582, 16.884850"	1952	"in use as theatre"	"41.118582, 16.884850"	"Commercial "	"601 – 900"	"Intermediate"	"Centre"	"Cinema"	0.6634677585	"0.50 – 0.75"	1676.43	2	1.89	128	9	"USA"	1952	1
"c2e2b012-20cd-11e9-8054-dc241e2d861b"	"Arena Postelegrafonici"	"222 Via S. Visconti"	"Italy"	"#7db4d3"	"Bari"	"Bari city"	"bari"	"italian"	1	"222 Via S. Visconti"	"6dd4b684-20c7-11e9-8054-dc241e2d861b"		41.119217	16.86365	"41.119217, 16.863650"	1951	1954	"41.119217, 16.863650"	"Workers' Corporate Recreational Club "	"601 – 900"	"Seasonal"	"Centre"	"Open Air Cinema"	0.3421364908	"0.20 – 0.50"	864.5	1	1.33	125	9	"Italy"	1950	
"c2e1321e-20cd-11e9-8054-dc241e2d861b"	"Arena Giardino"	"233 Via Ravanas"	"Italy"	"#7db4d3"	"Bari"	"Bari city"	"bari"	"italian"	1	"233 Via Ravanas"	"6dd46cf6-20c7-11e9-8054-dc241e2d861b"		41.120195	16.858887	"41.120195, 16.858887"	"before 1948"	"after 1993"	"41.120195, 16.858887"	"Workers' Corporate Recreational Club (then Commercial)"	"901 – 1500"	"Seasonal"	"Suburb"	"Open Air Cinema"	0.4568086113	"0.20 – 0.50"	2308.5	1	1.71	88	7	"USA"	1951	
"c2e3b12e-20cd-11e9-8054-dc241e2d861b"	"Letni kino Sport"	"Jamborova 65"	"Czech Republic"	"#cdd28f"	"Brno"	"Brno"	"brno"	"czech"	2	"Jamborova 65"	"6dd542d4-20c7-11e9-8054-dc241e2d861b"		49.19602	16.65032	"49.196020, 16.650320"	1951	1967	"49.196020, 16.650320"	"State controlled"	"301 – 600"	"Seasonal"	"Suburb"	"Open Air Cinema"	0.0910253243	"Up To 0.10"	460	1	1	72	19	"Czechoslovakia"	1951	1
"c2e09af2-20cd-11e9-8054-dc241e2d861b"	"Armenise"	"178 Via Pasubio, on the corner of Via Giulio Petroni"	"Italy"	"#7db4d3"	"Bari"	"Bari city"	"bari"	"italian"	1	"178 Via Pasubio, on the corner of Via Giulio Petroni"	"6dd3fcbc-20c7-11e9-8054-dc241e2d861b"		41.11066	16.867629	"41.110660, 16.867629"	"February 6th 1954"	2015	"41.110660, 16.867629"	"Commercial "	"601 – 900"	"Inactive"	"District"	"Cinema"	0.1258524049	"0.10 – 0.20"	636		0.75					1
"c2e0c5b8-20cd-11e9-8054-dc241e2d861b"	"Arena Carella"	"35/A Via Ospedale Di Venere"	"Italy"	"#7db4d3"	"Bari"	"Carbonara di Bari"	"bari"	"italian"	1	"35/A Via Ospedale Di Venere"	"6dd43ca4-20c7-11e9-8054-dc241e2d861b"		41.0754112	16.8687699	"41.0754112, 16.8687699"	"1947 with a documented delegation, 1953 officially authorized"	"1990s"	"41.0754112, 16.8687699"	"Commercial"	"601 – 900"	"Inactive"	"Suburb"	"Open Air Cinema"	0.1080431023	"0.10 – 0.20"	546		0.75					
"c2e0fbd2-20cd-11e9-8054-dc241e2d861b"	"Castello"	"Via Carmosini"	"Italy"	"#7db4d3"	"Bari"	"Bari - Ceglie del Campo"	"bari"	"italian"	1	"Via Carmosini"	"6dd461b6-20c7-11e9-8054-dc241e2d861b"		41.064391	16.867323	"41.064391, 16.867323"	1947	"Jun-56"	"41.064391, 16.867323"	"Commercial"	"Under 300"	"Inactive"	"Suburb"	"Cinema"	0.0422970936	"Up To 0.10"	213.75		0.75					
"c2e1e998-20cd-11e9-8054-dc241e2d861b"	"Italia and Arena Italia"	"Via V. Veneto on the corner of Via Vecchia Valenzano"	"Italy"	"#7db4d3"	"Bari"	"Bari - Carbonara di Bari"	"bari"	"italian"	1	"Via V. Veneto on the corner of Via Vecchia Valenzano"	"6dd47fc0-20c7-11e9-8054-dc241e2d861b"		41.066693	16.868793	"41.066693, 16.868793"	1947	"after 1959"	"41.066693, 16.868793"	"Commercial"	"601 – 900"	"Inactive"	"Suburb"	"Cinema"	0.0975059316	"Up To 0.10"	492.75		0.75					
"c2e7e802-20cd-11e9-8054-dc241e2d861b"	"Majestic"	"Veldstraat"	"Belgium"	"#65be4a"	"Gent"	"Gent"	"gent"	"dutch"	3	"Veldstraat"	"6dd5db54-20c7-11e9-8054-dc241e2d861b"		51.052506	3.721982	"51.052506, 3.721982"	1911	1985	"51.052506, 3.721982"	"Commercial"	"901 – 1500"	"Major"	"Centre"	"Cinema"	2.0668289292	"2.00 – 5.00"	2611.2	7	2.72	364	25	"USA"	1951	1
"c2e6fa5a-20cd-11e9-8054-dc241e2d861b"	"Forum"	"Frans van Ryhovenlaan"	"Belgium"	"#65be4a"	"Gent"	"Gent"	"gent"	"dutch"	3	"Frans van Ryhovenlaan"	"6dd5bc46-20c7-11e9-8054-dc241e2d861b"		51.072209	3.710361	"51.072209, 3.710361"	1932	1965	"51.072209, 3.710361"	"Commercial"	"301 – 600"	"Minor"	"District"	"Cinema"	0.4445201925	"0.20 – 0.50"	561.6	7	1.04	355	28	"USA"	1951	1
"c2e8c7b8-20cd-11e9-8054-dc241e2d861b"	"Metropole"	"Heernisplein"	"Belgium"	"#65be4a"	"Gent"	"Sint-Amandsberg"	"gent"	"dutch"	3	"Heernisplein"	"6dd6b290-20c7-11e9-8054-dc241e2d861b"		51.052265	3.748607	"51.052265, 3.748607"	1917	1968	"51.052265, 3.748607"	"Commercial"	"301 – 600"	"Intermediate"	"Suburb"	"Cinema"	0.5774963185	"0.50 – 0.75"	729.6	7	1.28	343	36	"USA"	1951	1
"c2e697e0-20cd-11e9-8054-dc241e2d861b"	"Century"	"Woodrow Wilsonplein"	"Belgium"	"#65be4a"	"Gent"	"Gent"	"gent"	"dutch"	3	"Woodrow Wilsonplein"	"6dd5ade6-20c7-11e9-8054-dc241e2d861b"		51.048282	3.730569	"51.048282, 3.730569"	1911	1986	"51.048282, 3.730569"	"Commercial"	"601 – 900"	"Major"	"Centre"	"Cinema"	1.7286896375	"1.00 – 2.00"	2184	7	2.73	359	15	"USA"	1951	1
"c2e6d62e-20cd-11e9-8054-dc241e2d861b"	"Eldorado"	"Veldstraat"	"Belgium"	"#65be4a"	"Gent"	"Gent"	"gent"	"dutch"	3	"Veldstraat"	"6dd5b66a-20c7-11e9-8054-dc241e2d861b"		51.050713	3.721212	"51.050713, 3.721212"	1936	1966	"51.050713, 3.721212"	"Commercial"	"601 – 900"	"Intermediate"	"Centre"	"Cinema"	0.844952467	"0.75 – 1.00"	1067.5	7	1.75	359	4	"France"	1951	1
"c2e44af8-20cd-11e9-8054-dc241e2d861b"	"Svetozor"	"Vojanova 1"	"Czech Republic"	"#cdd28f"	"Brno"	"Brno"	"brno"	"czech"	2	"Vojanova 1"	"6dd58ba4-20c7-11e9-8054-dc241e2d861b"		49.199464	16.639778	"49.199464, 16.639778"	1930	"1990s"	"49.199464, 16.639778"	"State controlled"	"Under 300"	"Minor"	"Suburb"	"Cinema"	0.2374573678	"0.20 – 0.50"	300	3	1	318	24	"Soviet Union"	1950	
"c2e3dc08-20cd-11e9-8054-dc241e2d861b"	"Morava"	"Lidicka 16"	"Czech Republic"	"#cdd28f"	"Brno"	"Brno"	"brno"	"czech"	2	"Lidicka 16"	"6dd5574c-20c7-11e9-8054-dc241e2d861b"		49.201691	16.608258	"49.201691, 16.608258"	1918	1953	"49.201691, 16.608258"	"State controlled"	"601 – 900"	"Intermediate"	"District"	"Cinema"	1.1504097097	"1.00 – 2.00"	1453.41	7	1.89	298	18	"Czechoslovakia"	1951	
"c2e467e0-20cd-11e9-8054-dc241e2d861b"	"Vlast"	"Tuhackova 29"	"Czech Republic"	"#cdd28f"	"Brno"	"Brno"	"brno"	"czech"	2	"Tuhackova 29"	"6dd5a04e-20c7-11e9-8054-dc241e2d861b"		49.177434	16.626144	"49.177434, 16.626144"	1929	1974	"49.177434, 16.626144"	"State controlled"	"Under 300"	"Minor"	"Suburb"	"Cinema"	0.2152946801	"0.20 – 0.50"	272	3	1	317	44	"Soviet Union"	1951	
"c2e40516-20cd-11e9-8054-dc241e2d861b"	"Radost"	"Cejl 52"	"Czech Republic"	"#cdd28f"	"Brno"	"Brno"	"brno"	"czech"	2	"Cejl 52"	"6dd5673c-20c7-11e9-8054-dc241e2d861b"		49.198893	16.623082	"49.198893, 16.623082"	1926	"1980s"	"49.198893, 16.623082"	"State controlled"	"301 – 600"	"Minor"	"District"	"Cinema"	0.4309851225	"0.20 – 0.50"	544.5	4	1.1	276	30	"Soviet Union"	1951	
"c2e3fe68-20cd-11e9-8054-dc241e2d861b"	"Praha"	"Postovska 6"	"Czech Republic"	"#cdd28f"	"Brno"	"Brno"	"brno"	"czech"	2	"Postovska 6"	"6dd564da-20c7-11e9-8054-dc241e2d861b"		49.194744	16.610016	"49.194744, 16.610016"	1932	1977	"49.194744, 16.610016"	"State controlled"	"301 – 600"	"Intermediate"	"Centre"	"Cinema"	0.7566974787	"0.75 – 1.00"	956	8	2.39	312	28	"Soviet Union"	1951	
"c2e8f3c8-20cd-11e9-8054-dc241e2d861b"	"Normandie"	"Dendermondsesteenweg"	"Belgium"	"#65be4a"	"Gent"	"Gent"	"gent"	"dutch"	3	"Dendermondsesteenweg"	"6dd6bc0e-20c7-11e9-8054-dc241e2d861b"		51.056444	3.742041	"51.056444, 3.742041"	1954	1973	"51.056444, 3.742041"	"Commercial"	"301 – 600"	"Inactive"	"District"	"Cinema"	0.0816259702	"Up To 0.10"	412.5		0.75					
"c2e91bf0-20cd-11e9-8054-dc241e2d861b"	"Novy"	"Blazoenstraat"	"Belgium"	"#65be4a"	"Gent"	"Gent"	"gent"	"dutch"	3	"Blazoenstraat"	"6dd6c186-20c7-11e9-8054-dc241e2d861b"		51.062488	3.696865	"51.062488, 3.696865"	1922	1968	"51.062488, 3.696865"	"Commercial"	"301 – 600"	"Intermediate"	"District"	"Cinema"	0.6382854046	"0.50 – 0.75"	806.4	7	1.44	350	36	"USA"	1951	1
"c2e92f64-20cd-11e9-8054-dc241e2d861b"	"Odeon"	"Antwerpsesteenweg"	"Belgium"	"#65be4a"	"Gent"	"Sint-Amandsberg"	"gent"	"dutch"	3	"Antwerpsesteenweg"	"6dd6c44c-20c7-11e9-8054-dc241e2d861b"		51.058594	3.743539	"51.058594, 3.743539"	1923	1963	"51.058594, 3.743539"	"Commercial"	"301 – 600"	"Minor"	"District"	"Cinema"	0.3363979377	"0.20 – 0.50"	425	7	1	358	16	"USA"	1950	
"c2e95552-20cd-11e9-8054-dc241e2d861b"	"Plaza"	"Sint-Michielshelling"	"Belgium"	"#65be4a"	"Gent"	"Gent"	"gent"	"dutch"	3	"Sint-Michielshelling"	"6dd6c9e2-20c7-11e9-8054-dc241e2d861b"		51.053854	3.721639	"51.053854, 3.721639"	1914		"51.053854, 3.721639"	"Commercial"	"301 – 600"	"Intermediate"	"Centre"	"Cinema"	0.8483560226	"0.75 – 1.00"	1071.8	8	2.33	355	21	"USA"	1951	1
"c2ebf028-20cd-11e9-8054-dc241e2d861b"	"Capitol"	"Skanstorget 1"	"Sweden"	"#b28ed8"	"Göteborg"	"Göteborg"	"gothenburg"	"swedish"	4	"Skanstorget 1"	"6dd73846-20c7-11e9-8054-dc241e2d861b"		57.696112	11.959606	"57.696112, 11.959606"	1941	"Active"	"57.696112, 11.959606"	"Commercial"	"301 – 600"	"Minor"	"District"	"Cinema"	0.5437773722	"0.50 – 0.75"	687	5	1.5	322	12	"USA"	1950	1
"c2eaf0ba-20cd-11e9-8054-dc241e2d861b"	"Vooruit"	"Sint-Pietersnieuwstraat"	"Belgium"	"#65be4a"	"Gent"	"Gent"	"gent"	"dutch"	3	"Sint-Pietersnieuwstraat"	"6dd6e846-20c7-11e9-8054-dc241e2d861b"		51.047891	3.727345	"51.047891, 3.727345"	1914	1980	"51.047891, 3.727345"	"Commercial"	"1501+"	"Major"	"Centre"	"Cinema"	1.5826533563	"1.00 – 2.00"	1999.5	7	1.29	333	7	"USA"	1951	1
"c2ebf820-20cd-11e9-8054-dc241e2d861b"	"Carolus"	"Kungsgatan 7B"	"Sweden"	"#b28ed8"	"Göteborg"	"Göteborg"	"gothenburg"	"swedish"	4	"Kungsgatan 7B"	"6dd73b48-20c7-11e9-8054-dc241e2d861b"		57.702922	11.958289	"57.702922, 11.958289"	1935	1973	"57.702922, 11.958289"	"Commercial"	"301 – 600"	"Minor"	"Centre"	"Cinema"	0.2548709081	"0.20 – 0.50"	322	5	1	333	5	"USA"	1951	1
"c2eb0b0e-20cd-11e9-8054-dc241e2d861b"	"Vox"	"Zwijnaardsesteenweg"	"Belgium"	"#65be4a"	"Gent"	"Gent"	"gent"	"dutch"	3	"Zwijnaardsesteenweg"	"6dd6ead0-20c7-11e9-8054-dc241e2d861b"		51.025666	3.721284	"51.025666, 3.721284"	1951	1963	"51.025666, 3.721284"	"Commercial"	"301 – 600"	"Minor"	"District"	"Cinema"	0.3561860517	"0.20 – 0.50"	450	7	1	323	11	"USA"	1950	
"c2e9b218-20cd-11e9-8054-dc241e2d861b"	"Ritz"	"Brusselsesteenweg"	"Belgium"	"#65be4a"	"Gent"	"Gentbrugge"	"gent"	"dutch"	3	"Brusselsesteenweg"	"6dd6d478-20c7-11e9-8054-dc241e2d861b"		51.03713	3.748999	"51.037130, 3.748999"	1949	1960	"51.037130, 3.748999"	"Commercial"	"301 – 600"	"Minor"	"Suburb"	"Cinema"	0.3166098237	"0.20 – 0.50"	400	7	1	355	2	"USA"	1950	
"c2e9e922-20cd-11e9-8054-dc241e2d861b"	"Savoy"	"Kortedagsteeg"	"Belgium"	"#65be4a"	"Gent"	"Gent"	"gent"	"dutch"	3	"Kortedagsteeg"	"6dd6dd88-20c7-11e9-8054-dc241e2d861b"		51.05017	3.726375	"51.050170, 3.726375"	1912	1982	"51.050170, 3.726375"	"Commercial"	"301 – 600"	"Minor"	"Centre"	"Cinema"	0.4749147356	"0.20 – 0.50"	600	7	1	362	1	"France"	1951	1
"c2ebd016-20cd-11e9-8054-dc241e2d861b"	"Vriendenkring"	"Koningin Astridstraat"	"Belgium"	"#65be4a"	"Gent"	"Gentbrugge"	"gent"	"dutch"	3	"Koningin Astridstraat"	"6dd6ed5a-20c7-11e9-8054-dc241e2d861b"		51.04763	3.741874	"51.047630, 3.741874"	1946	1953	"51.047630, 3.741874"	"Commercial"	"301 – 600"	"Minor"	"Suburb"	"Cinema"	0.0989405699	"Up To 0.10"	500	7	1	90	1	"USA"	1949	
"c2ebea74-20cd-11e9-8054-dc241e2d861b"	"Boulevard"	"Östra Hamngatan 35"	"Sweden"	"#b28ed8"	"Göteborg"	"Göteborg"	"gothenburg"	"swedish"	4	"Östra Hamngatan 35"	"6dd7354e-20c7-11e9-8054-dc241e2d861b"		57.7052222	11.9684625	"57.7052222, 11.9684625"	1941	1967	"57.7052222, 11.9684625"	"Newsreel"	"Under 300"	"Minor"	"Centre"	"Cinema"	0.0290885276	"Up To 0.10"	147		0.75					
"c2eeb9a2-20cd-11e9-8054-dc241e2d861b"	"Picture House"	"Granby Street, 7"	"United Kingdom"	"#f69899"	"Leicester"	"Leicester"	"leicester"	"english"	5	"Granby Street, 7"	"6dd8ebaa-20c7-11e9-8054-dc241e2d861b"		52.63383	-1.13197	"52.63383, -1.13197"	1910	1973	"52.63383, -1.13197"	"Commercial"	"1501+"	"Major"	"Centre"	"Cinema"	2.5740378668	"2.00 – 5.00"	3252	3	2	364	16	"USA"	1951	1
"c2eec4d8-20cd-11e9-8054-dc241e2d861b"	"Princes"	"Granby Street"	"United Kingdom"	"#f69899"	"Leicester"	"Leicester"	"leicester"	"english"	5	"Granby Street"	"6dd8f12c-20c7-11e9-8054-dc241e2d861b"		52.63318	-1.12945	"52.63318, -1.12945"	1910	1960	"52.63318, -1.12945"	"Commercial"	"901 – 1500"	"Major"	"Centre"	"Cinema"	1.6576898845	"1.00 – 2.00"	2094.3	3	1.79	363	14	"USA"	1951	1
"c2eeddb0-20cd-11e9-8054-dc241e2d861b"	"Savoy"	"Belgave Gate, 46"	"United Kingdom"	"#f69899"	"Leicester"	"Leicester"	"leicester"	"english"	5	"Belgave Gate, 46"	"6dd90252-20c7-11e9-8054-dc241e2d861b"		52.64137	-1.12925	"52.64137, -1.12925"	1937	1997	"52.64137, -1.12925"	"Commercial"	"1501+"	"Elite"	"Centre"	"Cinema"	5.4106085994	"5.00 – 7.50"	6835.68	3	2.82	364	22	"USA"	1952	1
"c2ee77a8-20cd-11e9-8054-dc241e2d861b"	"Gaumont"	"Market Place, 40"	"United Kingdom"	"#f69899"	"Leicester"	"Leicester"	"leicester"	"english"	5	"Market Place, 40"	"6dd8ccba-20c7-11e9-8054-dc241e2d861b"		52.63446	-1.13402	"52.63446, -1.13402"	1924	1964	"52.63446, -1.13402"	"Commercial"	"1501+"	"Elite"	"Centre"	"Cinema"	4.7491473557	"2.00 – 5.00"	6000	3	3	363	17	"USA"	1951	1
"c2ec04aa-20cd-11e9-8054-dc241e2d861b"	"Facklan"	"Kungsgatan 15"	"Sweden"	"#b28ed8"	"Göteborg"	"Göteborg"	"gothenburg"	"swedish"	4	"Kungsgatan 15"	"6dd74142-20c7-11e9-8054-dc241e2d861b"		57.703753	11.962094	"57.703753, 11.962094"	1944	1961	"57.703753, 11.962094"	"Commercial"	"Under 300"	"Minor"	"Centre"	"Cinema"	0.1377252733	"0.10 – 0.20"	174	5	1	355	1	"USA"	1948	
"c2ee7244-20cd-11e9-8054-dc241e2d861b"	"Fosse Cinema"	"Fosse Road North, 225"	"United Kingdom"	"#f69899"	"Leicester"	"Leicester"	"leicester"	"english"	5	"Fosse Road North, 225"	"6dd8c968-20c7-11e9-8054-dc241e2d861b"		52.6389	-1.15274	"52.6389, -1.15274"	1936	1981	"52.6389, -1.15274"	"Commercial"	"901 – 1500"	"Intermediate"	"District"	"Cinema"	0.8057403404	"0.75 – 1.00"	1017.96	3	1.02	329	48	"USA"	1951	1
"c2ec0a5e-20cd-11e9-8054-dc241e2d861b"	"Flamman"	"Redbergsvägen 19"	"Sweden"	"#b28ed8"	"Göteborg"	"Göteborg"	"gothenburg"	"swedish"	4	"Redbergsvägen 19"	"6dd78e5e-20c7-11e9-8054-dc241e2d861b"		57.714819	12.001704	"57.714819, 12.001704"	1935	1982	"57.714819, 12.001704"	"Commercial"	"601 – 900"	"Intermediate"	"Suburb"	"Cinema"	1.126117821	"1.00 – 2.00"	1422.72	5	2.08	320	25	"USA"	1952	1
"c2ee6632-20cd-11e9-8054-dc241e2d861b"	"Evington"	"East Park Road, 378"	"United Kingdom"	"#f69899"	"Leicester"	"Leicester"	"leicester"	"english"	5	"East Park Road, 378"	"6dd8c0f8-20c7-11e9-8054-dc241e2d861b"		52.62919	-1.10736	"52.62919, -1.10736"	1916	1970	"52.62919, -1.10736"	"Commercial"	"901 – 1500"	"Intermediate"	"District"	"Cinema"	0.774111019	"0.75 – 1.00"	978	3	1	329	51	"USA"	1952	
"c2ec1c2e-20cd-11e9-8054-dc241e2d861b"	"Grand"	"Göteborgsvägen 1"	"Sweden"	"#b28ed8"	"Göteborg"	"Mölndal"	"gothenburg"	"swedish"	4	"Göteborgsvägen 1"	"6dd7989a-20c7-11e9-8054-dc241e2d861b"		57.656279	12.016964	"57.656279, 12.016964"	1938	1966	"57.656279, 12.016964"	"Commercial"	"301 – 600"	"Minor"	"Suburb"	"Cinema"	0.4674664895	"0.20 – 0.50"	590.59	3	1.43	300	23	"USA"	1951	
"c2ec15b2-20cd-11e9-8054-dc241e2d861b"	"Gnistan"	"Kvilletorget 1"	"Sweden"	"#b28ed8"	"Göteborg"	"Göteborg"	"gothenburg"	"swedish"	4	"Kvilletorget 1"	"6dd795ac-20c7-11e9-8054-dc241e2d861b"		57.719049	11.947484	"57.719049, 11.947484"	1938	1968	"57.719049, 11.947484"	"Commercial"	"301 – 600"	"Minor"	"Suburb"	"Cinema"	0.4889247203	"0.20 – 0.50"	617.7	6	1.42	276	12	"USA"	1951	
"c2ec3952-20cd-11e9-8054-dc241e2d861b"	"Kronan"	"Kungsgatan 31-33"	"Sweden"	"#b28ed8"	"Göteborg"	"Göteborg"	"gothenburg"	"swedish"	4	"Kungsgatan 31-33"	"6dd7d0da-20c7-11e9-8054-dc241e2d861b"		57.704085	11.965067	"57.704085, 11.965067"	1916	1986	"57.704085, 11.965067"	"Commercial"	"Under 300"	"Minor"	"Centre"	"Cinema"	0.2228933159	"0.20 – 0.50"	281.6	16	1.1	301	20	"USA"	1951	
"c2ecd4f2-20cd-11e9-8054-dc241e2d861b"	"Lundby"	"Jägaregatan 6"	"Sweden"	"#b28ed8"	"Göteborg"	"Göteborg"	"gothenburg"	"swedish"	4	"Jägaregatan 6"	"6dd86f90-20c7-11e9-8054-dc241e2d861b"		57.715418	11.946492	"57.715418, 11.946492"	1932	1960	"57.715418, 11.946492"	"Commercial"	"Under 300"	"Minor"	"Suburb"	"Cinema"	0.1125073009	"0.10 – 0.20"	284.28	3	1.03	138	32	"USA"	1952	
"c2ee9b84-20cd-11e9-8054-dc241e2d861b"	"Melbourne"	"Nedham Street, 162/Melbourne Road"	"United Kingdom"	"#f69899"	"Leicester"	"Leicester"	"leicester"	"english"	5	"Nedham Street, 162/Melbourne Road"	"6dd8dda4-20c7-11e9-8054-dc241e2d861b"		52.63681	-1.11371	"52.63681, -1.11371"	1920	1961	"52.63681, -1.11371"	"Commercial"	"901 – 1500"	"Intermediate"	"District"	"Cinema"	0.7448246103	"0.50 – 0.75"	941	3	1	328	12	"USA"	1951	1
"c2ef3f12-20cd-11e9-8054-dc241e2d861b"	"Apollo Lichtspiele"	"Wittenberger Str. 4"	"Germany"	"#fce267"	"Magdeburg"	"Magdeburg"	"magdeburg"	"german"	6	"Wittenberger Str. 4"	"6dd91eae-20c7-11e9-8054-dc241e2d861b"		52.143488	11.649654	"52.143488, 11.649654"	1912	"1959+"	"52.143488, 11.649654"	"State controlled"	"Under 300"	"Minor"	"District"	"Cinema"	0.1695445606	"0.10 – 0.20"	214.2	5	1.02	337	53	"Soviet Union"	1951	1
"c2ef4fb6-20cd-11e9-8054-dc241e2d861b"	"Goethe Lichtspiele"	"Goethstr."	"Germany"	"#fce267"	"Magdeburg"	"Magdeburg"	"magdeburg"	"german"	6	"Goethstr."	"6dd9261a-20c7-11e9-8054-dc241e2d861b"		52.133489	11.611631	"52.133489, 11.611631"	1951	1953	"52.133489, 11.611631"	"State controlled"	"Under 300"	"Minor"	"District"	"Cinema"	0.1739375219	"0.10 – 0.20"	293	5	1	195	30	"Soviet Union"	1951	
"c2ef603c-20cd-11e9-8054-dc241e2d861b"	"Marktschlößchen Lichtspiele"	"Moritzplatz 1a"	"Germany"	"#fce267"	"Magdeburg"	"Magdeburg"	"magdeburg"	"german"	6	"Moritzplatz 1a"	"6dd92ef8-20c7-11e9-8054-dc241e2d861b"		52.155738	11.632869	"52.155738, 11.632869"	1925	"1959+"	"52.155738, 11.632869"	"State controlled"	"301 – 600"	"Minor"	"District"	"Cinema"	0.2796377115	"0.20 – 0.50"	353.29	6	1.03	346	58	"Soviet Union"	1951	1
"c2ef93b8-20cd-11e9-8054-dc241e2d861b"	"Scala Lichtspiele"	"Halberstädter Str. 135a"	"Germany"	"#fce267"	"Magdeburg"	"Magdeburg"	"magdeburg"	"german"	6	"Halberstädter Str. 135a"	"6dd99726-20c7-11e9-8054-dc241e2d861b"		52.109413	11.599103	"52.109413, 11.599103"	1910	2000	"52.109413, 11.599103"	"State controlled"	"601 – 900"	"Major"	"District"	"Cinema"	1.4173830283	"1.00 – 2.00"	1790.7	5	2.35	332	49	"Soviet Union"	1951	1
"c2ef9ca0-20cd-11e9-8054-dc241e2d861b"	"Süd Lichtspiele"	"Leipz. Chaussee 57"	"Germany"	"#fce267"	"Magdeburg"	"Magdeburg"	"magdeburg"	"german"	6	"Leipz. Chaussee 57"	"6dd99a00-20c7-11e9-8054-dc241e2d861b"		52.090255	11.621531	"52.090255, 11.621531"	1937	"1959+"	"52.090255, 11.621531"	"State controlled"	"301 – 600"	"Minor"	"District"	"Cinema"	0.3803117202	"0.20 – 0.50"	480.48	5	1.04	344	57	"Soviet Union"	1951	
"c2efabbe-20cd-11e9-8054-dc241e2d861b"	"Theater des Friedens"	"Alter Markt 18/19"	"Germany"	"#fce267"	"Magdeburg"	"Magdeburg"	"magdeburg"	"german"	6	"Alter Markt 18/19"	"6dd99f32-20c7-11e9-8054-dc241e2d861b"		52.131794	11.639057	"52.131794, 11.639057"	1951	"1959+"	"52.131794, 11.639057"	"State controlled"	"901 – 1500"	"Major"	"Centre"	"Cinema"	2.4505600355	"2.00 – 5.00"	3096	6	3	305	36	"Czechoslovakia"	1951	1
"c2efb92e-20cd-11e9-8054-dc241e2d861b"	"Turmpark Lichtspiele"	"Alt Salbke 111"	"Germany"	"#fce267"	"Magdeburg"	"Magdeburg"	"magdeburg"	"german"	6	"Alt Salbke 111"	"6dd9a298-20c7-11e9-8054-dc241e2d861b"		52.08228	11.66465	"52.082280, 11.66465"	"?"	"1959+"	"52.082280, 11.66465"	"State controlled"	"301 – 600"	"Minor"	"District"	"Cinema"	0.4455175134	"0.20 – 0.50"	562.86	6	1.18	342	56	"Soviet Union"	1951	1
"c2efd0a8-20cd-11e9-8054-dc241e2d861b"	"Theater der Freundschaft"	"Braunschweiger Str. 25"	"Germany"	"#fce267"	"Magdeburg"	"Magdeburg"	"magdeburg"	"german"	6	"Braunschweiger Str. 25"	"6dd9ab4e-20c7-11e9-8054-dc241e2d861b"		52.112636	11.599209	"52.112636, 11.599209"	1954	"1959+"	"52.112636, 11.599209"	"State controlled"	"901 – 1500"	"Intermediate"	"District"	"Cinema"	0.2342912695	"0.20 – 0.50"	1184	6	1	36	2	"Germany"	1953	1
"c2effbd2-20cd-11e9-8054-dc241e2d861b"	"Cineac NRC"	"Coolsingel 103"	"Netherlands"	"#e791ce"	"Rotterdam"	"Rotterdam"	"rotterdam"	"dutch"	7	"Coolsingel 103"	"6dd9bc74-20c7-11e9-8054-dc241e2d861b"		51.920821	4.479275	"51.920821, 4.479275"	1957	1989	"51.920821, 4.479275"	"Commercial"	"301 – 600"	"Inactive"	"Centre"	"Cinema"	0.084891009	"Up To 0.10"	429		0.75					1
"c2e20572-20cd-11e9-8054-dc241e2d861b"	"Kursaal Santalucia"	"Via Cognetti (now 5-9 Largo Adua)"	"Italy"	"#7db4d3"	"Bari"	"Bari city"	"bari"	"italian"	1	"Via Cognetti (now 5-9 Largo Adua)"	"6dd48a7e-20c7-11e9-8054-dc241e2d861b"		41.124129	16.875738	"41.124129, 16.875738"	1927	2011	"41.124129, 16.875738"	"Commercial "	"601 – 900"	"Major"	"Centre"	"Cinema - Theatre"	1.8284217319	"1.00 – 2.00"	2310	4	3	340	1	"USA"	1952	1
"c2e101a4-20cd-11e9-8054-dc241e2d861b"	"Ferrovieri"	"Via C. Rosselli (now 112 Corso Italia)"	"Italy"	"#7db4d3"	"Bari"	"Bari city"	"bari"	"italian"	1	"Via C. Rosselli (now 112 Corso Italia)"	"6dd464b8-20c7-11e9-8054-dc241e2d861b"		41.118235	16.858586	"41.118235, 16.858586"	1921	"in use as multifunctional theatre"	"41.118235, 16.858586"	"Workers' Corporate Recreational Club (then Commercial)"	"601 – 900"	"Intermediate"	"Centre"	"Cinema - Theatre"	0.8915732636	"0.75 – 1.00"	1126.4	1	1.6	298	10	"USA"	1951	1
"c2e2f9f0-20cd-11e9-8054-dc241e2d861b"	"S. Antonio"	"Piazzetta S. Antonio"	"Italy"	"#7db4d3"	"Bari"	"Bari city"	"bari"	"italian"	1	"Piazzetta S. Antonio"	"6dd4d4ac-20c7-11e9-8054-dc241e2d861b"		41.118976	16.874451	"41.118976, 16.874451"	1948	1962	"41.118976, 16.874451"	"Parish"	"Under 300"	"Minor"	"Centre"	"Cinema"	0.1187286839	"0.10 – 0.20"	200	1	1	270	6	"USA"	1949	
"c2e3071a-20cd-11e9-8054-dc241e2d861b"	"S. Giuseppe"	"Corso Sonnino (now 17 Largo Monsignor Curi) "	"Italy"	"#7db4d3"	"Bari"	"Bari city"	"bari"	"italian"	1	"Corso Sonnino (now 17 Largo Monsignor Curi) "	"6dd4e82a-20c7-11e9-8054-dc241e2d861b"		41.118592	16.883223	"41.118592, 16.883223"	1951	"in use as parish running"	"41.118592, 16.883223"	"Parish "	"301 – 600"	"Minor"	"Centre"	"Open Air Cinema"	0.159887961	"0.10 – 0.20"	404	1	1	131	3	"USA"	1950	1
"c2e20e3c-20cd-11e9-8054-dc241e2d861b"	"Arena Libertas"	"264 Via Napoli"	"Italy"	"#7db4d3"	"Bari"	"Bari city"	"bari"	"italian"	1	"264 Via Napoli"	"6dd48da8-20c7-11e9-8054-dc241e2d861b"		41.127423	16.852598	"41.127423, 16.852598"	1951	"in use as experimental cinema reactivation project"	"41.127423, 16.852598"	"Commercial"	"901 – 1500"	"Seasonal"	"Centre"	"Open Air Cinema"	0.4539393347	"0.20 – 0.50"	1147	1	1	94	2	"USA"	1951	
"c2e1783c-20cd-11e9-8054-dc241e2d861b"	"Impero"	"40 Via Armando Diaz"	"Italy"	"#7db4d3"	"Bari"	"Bari - Palese"	"bari"	"italian"	1	"40 Via Armando Diaz"	"6dd47a70-20c7-11e9-8054-dc241e2d861b"		41.06656	16.919115	"41.066560, 16.919115"	1941	1981	"41.066560, 16.919115"	"Commercial"	"601 – 900"	"Minor"	"Suburb"	"Cinema - Theatre"	0.4358826807	"0.20 – 0.50"	2202.75	4	2.67	79	3	"USA"	1952	1
"c2e30ea4-20cd-11e9-8054-dc241e2d861b"	"Arena S. Maria del Monte Carmelo"	"280 Via Napoli"	"Italy"	"#7db4d3"	"Bari"	"Bari city"	"bari"	"italian"	1	"280 Via Napoli"	"6dd4ed5c-20c7-11e9-8054-dc241e2d861b"		41.126972	16.850272	"41.126972, 16.850272"	1951	"1980s"	"41.126972, 16.850272"	"Parish"	"301 – 600"	"Seasonal"	"Centre"	"Open Air Cinema"	0.0771736445	"Up To 0.10"	390	1	1	34	2	"USA"	1950	
"c2e333ca-20cd-11e9-8054-dc241e2d861b"	"SS. Sacramento"	"24 Via Buccari"	"Italy"	"#7db4d3"	"Bari"	"Bari city"	"bari"	"italian"	1	"24 Via Buccari"	"6dd4fec8-20c7-11e9-8054-dc241e2d861b"		41.110653	16.869971	"41.110653, 16.869971"	1951	"in use as cinema d'essai"	"41.110653, 16.869971"	"Parish "	"Under 300"	"Inactive"	"District"	"Cinema"	0.0316115121	"Up To 0.10"	159.75		0.75					1
"c2e0bf3c-20cd-11e9-8054-dc241e2d861b"	"Carella"	"35/A Via Ospedale Di Venere"	"Italy"	"#7db4d3"	"Bari"	"Bari - Carbonara di Bari"	"bari"	"italian"	1	"35/A Via Ospedale Di Venere"	"6dd407fc-20c7-11e9-8054-dc241e2d861b"		41.075233	16.868738	"41.075233, 16.868738"	"1920s"	2006	"41.075233, 16.868738"	"Commercial"	"901 – 1500"	"Inactive"	"Suburb"	"Open Air Cinema"	0.1484108549	"0.10 – 0.20"	750		0.75					1
"c2e1f078-20cd-11e9-8054-dc241e2d861b"	"Arena Italia"	"45 Lungomare Nazario Sauro"	"Italy"	"#7db4d3"	"Bari"	"Bari city"	"bari"	"italian"	1	"45 Lungomare Nazario Sauro"	"6dd48272-20c7-11e9-8054-dc241e2d861b"		41.119836	16.887322	"41.119836, 16.887322"	"before 1947"	1952	"41.119836, 16.887322"	"Commercial"	"901 – 1500"	"Inactive"	"District"	"Open Air Cinema"	0.2077751968	"0.20 – 0.50"	1050		0.75					
"c2e394f0-20cd-11e9-8054-dc241e2d861b"	"Jadran"	"Palackeho trida 78"	"Czech Republic"	"#cdd28f"	"Brno"	"Brno"	"brno"	"czech"	2	"Palackeho trida 78"	"6dd537da-20c7-11e9-8054-dc241e2d861b"		49.223674	16.59527	"49.223674, 16.595270"	1931	"1990s"	"49.223674, 16.595270"	"State controlled"	"601 – 900"	"Intermediate"	"Suburb"	"Cinema"	0.653799286	"0.50 – 0.75"	826	4	1.18	316	56	"Czechoslovakia"	1951	1
"c2e33c94-20cd-11e9-8054-dc241e2d861b"	"Sociale"	"268 Via Nicolai "	"Italy"	"#7db4d3"	"Bari"	"Bari city"	"bari"	"italian"	1	"268 Via Nicolai "	"6dd501de-20c7-11e9-8054-dc241e2d861b"		41.120544	16.856803	"41.120544, 16.856803"	"1945-47"	1955	"41.120544, 16.856803"	"Workers' Corporate Recreational Club"	"Under 300"	"Minor"	"Centre"	"Cinema"	0.0791524559	"Up To 0.10"	200	1	1	120	8	"USA"	1950	
"c2e3d6a4-20cd-11e9-8054-dc241e2d861b"	"Mladych"		"Czech Republic"	"#cdd28f"	"Brno"	"Brno"	"brno"	"czech"	2		"6dd553fa-20c7-11e9-8054-dc241e2d861b"				"0, 0"				"State controlled"	"301 – 600"	"Intermediate"	"District"	"Cinema"	0.4115927708	"0.20 – 0.50"	1040	12	2	174	1	"Soviet Union"	1947	
"c2e35d14-20cd-11e9-8054-dc241e2d861b"	"Arena Valentino"	"76/A Via Municipio"	"Italy"	"#7db4d3"	"Bari"	"Bari - Ceglie del Campo"	"bari"	"italian"	1	"76/A Via Municipio"	"6dd51a3e-20c7-11e9-8054-dc241e2d861b"		41.066724	16.868668	"41.066724, 16.868668"	1958	"1960s"	"41.066724, 16.868668"	"Commercial "	"601 – 900"	"Inactive"	"Suburb"	"Open Air Cinema"	0.101216203	"0.10 – 0.20"	511.5		0.75					
"c2e3682c-20cd-11e9-8054-dc241e2d861b"	"Beseda"	"Turanka 3"	"Czech Republic"	"#cdd28f"	"Brno"	"Brno"	"brno"	"czech"	2	"Turanka 3"	"6dd5210a-20c7-11e9-8054-dc241e2d861b"		49.176378	16.687688	"49.176378, 16.687688"	1921	1977	"49.176378, 16.687688"	"State controlled"	"Under 300"	"Inactive"	"Suburb"	"Cinema"	0.0373995354	"Up To 0.10"	189		0.75					
"c2e36dc2-20cd-11e9-8054-dc241e2d861b"	"Bohunice"	"Hranicky 5"	"Czech Republic"	"#cdd28f"	"Brno"	"Brno"	"brno"	"czech"	2	"Hranicky 5"	"6dd5266e-20c7-11e9-8054-dc241e2d861b"		49.168436	16.576657	"49.168436, 16.576657"	1950	1970	"49.168436, 16.576657"	"State controlled"	"Under 300"	"Inactive"	"Suburb"	"Cinema"	0.0317599229	"Up To 0.10"	160.5		0.75					
"c2e342ac-20cd-11e9-8054-dc241e2d861b"	"Arena Splendor"	"24 Via Buccari"	"Italy"	"#7db4d3"	"Bari"	"Bari city"	"bari"	"italian"	1	"24 Via Buccari"	"6dd507f6-20c7-11e9-8054-dc241e2d861b"		41.110653	16.869971	"41.110653, 16.869971"	1953	1958	"41.110653, 16.869971"	"Parish"	"Under 300"	"Inactive"	"District"	"Open Air Cinema"	0.0356186052	"Up To 0.10"	180		0.75					
"c2e26d8c-20cd-11e9-8054-dc241e2d861b"	"Arena Mesto"	"II trav. Lungomare IX Maggio (now Via Francesco Cilea)"	"Italy"	"#7db4d3"	"Bari"	"Bari city"	"bari"	"italian"	1	"II trav. Lungomare IX Maggio (now Via Francesco Cilea)"	"6dd497da-20c7-11e9-8054-dc241e2d861b"		41.137006	16.825652	"41.137006, 16.825652"	1953	"after 1956"	"41.137006, 16.825652"	"Commercial"	"301 – 600"	"Inactive"	"District"	"Open Air Cinema"	0.0593643419	"Up To 0.10"	300		0.75					1
"c2e10dac-20cd-11e9-8054-dc241e2d861b"	"Arena Fesca"	"Via Abatescianni (then Via Cimarosa)"	"Italy"	"#7db4d3"	"Bari"	"Bari city"	"bari"	"italian"	1	"Via Abatescianni (then Via Cimarosa)"	"6dd46792-20c7-11e9-8054-dc241e2d861b"		41.137701	16.812736	"41.137701, 16.812736"	1951	"after 1959"	"41.137701, 16.812736"	"Commercial"	"Under 300"	"Inactive"	"District"	"Open Air Cinema"	0.0445232565	"Up To 0.10"	225		0.75					
"c2e3f120-20cd-11e9-8054-dc241e2d861b"	"Osveta"	"Revolucni 34"	"Czech Republic"	"#cdd28f"	"Brno"	"Brno"	"brno"	"czech"	2	"Revolucni 34"	"6dd56016-20c7-11e9-8054-dc241e2d861b"		49.150414	16.662116	"49.150414, 16.662116"	1927	1992	"49.150414, 16.662116"	"State controlled"	"301 – 600"	"Inactive"	"Suburb"	"Cinema"	0.0593643419	"Up To 0.10"	300		0.75					
"c2e4305e-20cd-11e9-8054-dc241e2d861b"	"Sokolovo"	"Mlynske nabrezi 9"	"Czech Republic"	"#cdd28f"	"Brno"	"Brno"	"brno"	"czech"	2	"Mlynske nabrezi 9"	"6dd57538-20c7-11e9-8054-dc241e2d861b"		49.229107	16.651243	"49.229107, 16.651243"	1927	"1970s"	"49.229107, 16.651243"	"State controlled"	"Under 300"	"Inactive"	"Suburb"	"Cinema"	0.0326503881	"Up To 0.10"	165		0.75					
"c2e42442-20cd-11e9-8054-dc241e2d861b"	"Slavia"	"Machalova 4"	"Czech Republic"	"#cdd28f"	"Brno"	"Brno"	"brno"	"czech"	2	"Machalova 4"	"6dd56cfa-20c7-11e9-8054-dc241e2d861b"		49.164222	16.563433	"49.164222, 16.563433"	1925	"1970s"	"49.164222, 16.563433"	"State controlled"	"Under 300"	"Inactive"	"Suburb"	"Cinema"	0.0445232565	"Up To 0.10"	225		0.75					
"c2e5a204-20cd-11e9-8054-dc241e2d861b"	"Capitole"	"Graaf van Vlaanderenplein"	"Belgium"	"#65be4a"	"Gent"	"Gent"	"gent"	"dutch"	3	"Graaf van Vlaanderenplein"	"6dd5a850-20c7-11e9-8054-dc241e2d861b"		51.048024	3.73205	"51.048024, 3.732050"	1932	1986	"51.048024, 3.732050"	"Commercial"	"1501+"	"Elite"	"Centre"	"Cinema"	3.8349364897	"2.00 – 5.00"	4845	8	2.85	362	13	"USA"	1952	1
"c2e6bab8-20cd-11e9-8054-dc241e2d861b"	"City"	"Noordstraat"	"Belgium"	"#65be4a"	"Gent"	"Gent"	"gent"	"dutch"	3	"Noordstraat"	"6dd5b3ae-20c7-11e9-8054-dc241e2d861b"		51.057177	3.708792	"51.057177, 3.708792"	1911	1967	"51.057177, 3.708792"	"Commercial"	"301 – 600"	"Intermediate"	"District"	"Cinema"	0.6166767841	"0.50 – 0.75"	779.1	7	1.47	361	17	"USA"	1951	1
"c2e7d420-20cd-11e9-8054-dc241e2d861b"	"Lido"	"Brusselsesteenweg"	"Belgium"	"#65be4a"	"Gent"	"Ledeberg"	"gent"	"dutch"	3	"Brusselsesteenweg"	"6dd5d6ae-20c7-11e9-8054-dc241e2d861b"		51.041082	3.742021	"51.041082, 3.742021"	1930	1965	"51.041082, 3.742021"	"Commercial"	"301 – 600"	"Minor"	"Suburb"	"Cinema"	0.461617123	"0.20 – 0.50"	583.2	7	1.08	352	37	"USA"	1951	1
"c2e578c4-20cd-11e9-8054-dc241e2d861b"	"Agora"	"Hundelgemsesteenweg"	"Belgium"	"#65be4a"	"Gent"	"Ledeberg"	"gent"	"dutch"	3	"Hundelgemsesteenweg"	"6dd5a2a6-20c7-11e9-8054-dc241e2d861b"		51.033147	3.742707	"51.033147, 3.742707"	1931	1969	"51.033147, 3.742707"	"Commercial"	"301 – 600"	"Minor"	"Suburb"	"Cinema"	0.4353385076	"0.20 – 0.50"	550	7	1	354	6	"USA"	1951	
"c2e37768-20cd-11e9-8054-dc241e2d861b"	"Cas"	"Nadrazni namesti 1"	"Czech Republic"	"#cdd28f"	"Brno"	"Brno"	"brno"	"czech"	2	"Nadrazni namesti 1"	"6dd529b6-20c7-11e9-8054-dc241e2d861b"		49.191727	16.612758	"49.191727, 16.612758"	1914	1981	"49.191727, 16.612758"	"State controlled"	"Under 300"	"Minor"	"Centre"	"Cinema"	0.0479367061	"Up To 0.10"	242.25	5	0.75	7		"USA"	1936	1
"c2e9c0aa-20cd-11e9-8054-dc241e2d861b"	"Roxy"	"Van den Heckestraat"	"Belgium"	"#65be4a"	"Gent"	"Ledeberg"	"gent"	"dutch"	3	"Van den Heckestraat"	"6dd6d73e-20c7-11e9-8054-dc241e2d861b"		51.036503	3.744774	"51.036503, 3.744774"	1943	1963	"51.036503, 3.744774"	"Commercial"	"301 – 600"	"Minor"	"Suburb"	"Cinema"	0.3363979377	"0.20 – 0.50"	425	7	1	352	8	"USA"	1951	
"c2e43cca-20cd-11e9-8054-dc241e2d861b"	"Studio"	"Cihlarska 19"	"Czech Republic"	"#cdd28f"	"Brno"	"Brno"	"brno"	"czech"	2	"Cihlarska 19"	"6dd5837a-20c7-11e9-8054-dc241e2d861b"		49.20451	16.603656	"49.204510, 16.603656"	1919	"today"	"49.204510, 16.603656"	"State controlled"	"301 – 600"	"Minor"	"District"	"Cinema"	0.3482708061	"0.20 – 0.50"	440	4	1.1	319	41	"Soviet Union"	1951	1
"c2e9438c-20cd-11e9-8054-dc241e2d861b"	"Pax"	"Vredestraat"	"Belgium"	"#65be4a"	"Gent"	"Gent"	"gent"	"dutch"	3	"Vredestraat"	"6dd6c73a-20c7-11e9-8054-dc241e2d861b"		51.042476	3.754381	"51.042476, 3.754381"	1949	1963	"51.042476, 3.754381"	"Commercial"	"301 – 600"	"Minor"	"Suburb"	"Cinema"	0.2790124071	"0.20 – 0.50"	470	7	1	210	4	"USA"	1951	
"c2e7aa22-20cd-11e9-8054-dc241e2d861b"	"Leopold"	"Sint-Pietersplein"	"Belgium"	"#65be4a"	"Gent"	"Gent"	"gent"	"dutch"	3	"Sint-Pietersplein"	"6dd5d15e-20c7-11e9-8054-dc241e2d861b"		51.043468	3.725622	"51.043468, 3.725622"	1919	1981	"51.043468, 3.725622"	"Commercial"	"301 – 600"	"Intermediate"	"Centre"	"Cinema"	0.7915245593	"0.75 – 1.00"	1000	7	2	325	1	"France"	1951	1
"c2e44382-20cd-11e9-8054-dc241e2d861b"	"Svet"	"Holzova 7"	"Czech Republic"	"#cdd28f"	"Brno"	"Brno"	"brno"	"czech"	2	"Holzova 7"	"6dd586d6-20c7-11e9-8054-dc241e2d861b"		49.201481	16.694671	"49.201481, 16.694671"	1923	"1970s"	"49.201481, 16.694671"	"State controlled"	"301 – 600"	"Inactive"	"Suburb"	"Cinema"	0.0865235284	"Up To 0.10"	437.25		0.75					
"c2ede5ea-20cd-11e9-8054-dc241e2d861b"	"Victoria"	"Kungsgatan 46 "	"Sweden"	"#b28ed8"	"Göteborg"	"Göteborg"	"gothenburg"	"swedish"	4	"Kungsgatan 46 "	"6dd8a8f2-20c7-11e9-8054-dc241e2d861b"		57.704784	11.967485	"57.704784, 11.967485"	1914	2002	"57.704784, 11.967485"	"Commercial"	"601 – 900"	"Major"	"Centre"	"Cinema"	1.6455795588	"1.00 – 2.00"	2079	10	2.75	360	8	"USA"	1951	1
"c2ed7ef2-20cd-11e9-8054-dc241e2d861b"	"Skansen"	"Övre Husargatan 1  (Skanstorget)"	"Sweden"	"#b28ed8"	"Göteborg"	"Göteborg"	"gothenburg"	"swedish"	4	"Övre Husargatan 1  (Skanstorget)"	"6dd89c68-20c7-11e9-8054-dc241e2d861b"		57.695125	11.957777	"57.695125, 11.957777"	1936	1986	"57.695125, 11.957777"	"Commercial"	"301 – 600"	"Minor"	"District"	"Cinema"	0.3886068976	"0.20 – 0.50"	490.96	5	1.36	354	11	"USA"	1952	1
"c2ee607e-20cd-11e9-8054-dc241e2d861b"	"Coliseum"	"Melton Road, 98-100"	"United Kingdom"	"#f69899"	"Leicester"	"Leicester"	"leicester"	"english"	5	"Melton Road, 98-100"	"6dd8bbd0-20c7-11e9-8054-dc241e2d861b"		52.65422	-1.11933	"52.65422, -1.11933"	1933	1968	"52.65422, -1.11933"	"Commercial"	"1501+"	"Major"	"District"	"Cinema"	1.916375941	"1.00 – 2.00"	2421.12	2	1.56	363	27	"USA"	1951	1
"c2ed70c4-20cd-11e9-8054-dc241e2d861b"	"Röda Sten"	"Mariaplan  "	"Sweden"	"#b28ed8"	"Göteborg"	"Göteborg"	"gothenburg"	"swedish"	4	"Mariaplan  "	"6dd89628-20c7-11e9-8054-dc241e2d861b"		57.68749	11.921432	"57.687490, 11.921432"	1934	1963	"57.687490, 11.921432"	"Commercial"	"301 – 600"	"Intermediate"	"Suburb"	"Cinema"	0.5914271507	"0.50 – 0.75"	747.2	5	1.6	304	15	"USA"	1952	
"c2ed0de6-20cd-11e9-8054-dc241e2d861b"	"Rialto"	"Järntorgsgatan 12 (Järntorget) ."	"Sweden"	"#b28ed8"	"Göteborg"	"Göteborg"	"gothenburg"	"swedish"	4	"Järntorgsgatan 12 (Järntorget) ."	"6dd88af2-20c7-11e9-8054-dc241e2d861b"		57.700652	11.954316	"57.700652, 11.954316"	1923	1969	"57.700652, 11.954316"	"Commercial"	"601 – 900"	"Intermediate"	"Centre"	"Cinema"	0.6355942211	"0.50 – 0.75"	803	5	1	337	3	"USA"	1952	1
"c2ed1430-20cd-11e9-8054-dc241e2d861b"	"Rio"	"Landsvägsgatan 36  (The old building is demolished so it is not possible confirm it that way though)"	"Sweden"	"#b28ed8"	"Göteborg"	"Göteborg"	"gothenburg"	"swedish"	4	"Landsvägsgatan 36  (The old building is demolished so it is not possible confirm it that way though)"	"6dd88dd6-20c7-11e9-8054-dc241e2d861b"		57.696534	11.952192	"57.696534, 11.952192"	1940	1984	"57.696534, 11.952192"	"Commercial"	"Under 300"	"Minor"	"District"	"Cinema"	0.1175413971	"0.10 – 0.20"	198	6	1	238	3	"USA"	1950	1
"c2edebc6-20cd-11e9-8054-dc241e2d861b"	"Östra Bio"	"Redbergsvägen 14  (The building has since been demolished)"	"Sweden"	"#b28ed8"	"Göteborg"	"Göteborg"	"gothenburg"	"swedish"	4	"Redbergsvägen 14  (The building has since been demolished)"	"6dd8ab72-20c7-11e9-8054-dc241e2d861b"		57.715091	12.000806	"57.715091, 12.000806"	1921	1963	"57.715091, 12.000806"	"Commercial"	"Under 300"	"Minor"	"Suburb"	"Cinema"	0.1666178985	"0.10 – 0.20"	280.67	6	1.27	236	15	"USA"	1952	
"c2ed8a6e-20cd-11e9-8054-dc241e2d861b"	"Stjärnan"	"Aftonstjärnans Hus Lindholmen (more exact address: Plåtslagaregatan 2 )"	"Sweden"	"#b28ed8"	"Göteborg"	"Göteborg"	"gothenburg"	"swedish"	4	"Aftonstjärnans Hus Lindholmen (more exact address: Plåtslagaregatan 2 )"	"6dd8a33e-20c7-11e9-8054-dc241e2d861b"		57.706995	11.932659	"57.706995, 11.932659"	1943	1953	"57.706995, 11.932659"	"Commercial"	"Under 300"	"Minor"	"Suburb"	"Cinema"	0.1130297071	"0.10 – 0.20"	285.6	3	1.2	122	5	"USA"	1950	
"c2ee4a80-20cd-11e9-8054-dc241e2d861b"	"Belgrave"	"Belgrave Road"	"United Kingdom"	"#f69899"	"Leicester"	"Leicester"	"leicester"	"english"	5	"Belgrave Road"	"6dd8b07c-20c7-11e9-8054-dc241e2d861b"		52.64978	-1.12245	"52.64978, -1.12245"	1913	1960	"52.64978, -1.12245"	"Commercial"	"601 – 900"	"Intermediate"	"District"	"Cinema"	0.4210910655	"0.20 – 0.50"	1064	2	1.4	120	5	"USA"	1952	
"c2e8b390-20cd-11e9-8054-dc241e2d861b"	"Metro"	"Ottergemsesteenweg"	"Belgium"	"#65be4a"	"Gent"	"Gent"	"gent"	"dutch"	3	"Ottergemsesteenweg"	"6dd658fe-20c7-11e9-8054-dc241e2d861b"		51.0369087	3.7271705000001	"51.0369087, 3.7271705000000566"	1913	1975	"51.0369087, 3.7271705000000566"	"Commercial"	"601 – 900"	"Minor"	"District"	"Cinema"	0.1286227409	"0.10 – 0.20"	650	6	1	66	6	"USA"	1950	1
"c2ea0088-20cd-11e9-8054-dc241e2d861b"	"Scala"	"Dendermondsesteenweg"	"Belgium"	"#65be4a"	"Gent"	"Sint-Amandsberg"	"gent"	"dutch"	3	"Dendermondsesteenweg"	"6dd6e03a-20c7-11e9-8054-dc241e2d861b"		51.0535407	3.7441228	"51.0535407, 3.7441228000000137"	1954	1975	"51.0535407, 3.7441228000000137"	"Commercial"	"601 – 900"	"Inactive"	"District"	"Cinema"	0.1113081411	"0.10 – 0.20"	562.5		0.75					1
"c2ecfc02-20cd-11e9-8054-dc241e2d861b"	"Plaza"	"Östra Hamngatan 37"	"Sweden"	"#b28ed8"	"Göteborg"	"Göteborg"	"gothenburg"	"swedish"	4	"Östra Hamngatan 37"	"6dd88246-20c7-11e9-8054-dc241e2d861b"		57.705093	11.968628	"57.705093, 11.968628"	1941	1968	"57.705093, 11.968628"	"Commercial"	"301 – 600"	"Intermediate"	"Centre"	"Cinema"	0.9776594746	"0.75 – 1.00"	1235.16	8	2.92	359	12	"USA"	1951	1
"c2ee6bd2-20cd-11e9-8054-dc241e2d861b"	"Floral Hall Picture Theatre"	"Belgrave Gate, 22"	"United Kingdom"	"#f69899"	"Leicester"	"Leicester"	"leicester"	"english"	5	"Belgrave Gate, 22"	"6dd8c56c-20c7-11e9-8054-dc241e2d861b"		52.63774	-1.13214	"52.63774, -1.13214"	1910	"1960s"	"52.63774, -1.13214"	"Commercial"	"601 – 900"	"Major"	"Centre"	"Cinema"	1.3851679787	"1.00 – 2.00"	1750	3	2.5	364	2	"USA"	1950	1
"c2eea106-20cd-11e9-8054-dc241e2d861b"	"Oadby"	"London Road, 12"	"United Kingdom"	"#f69899"	"Leicester"	"Oadby"	"leicester"	"english"	5	"London Road, 12"	"6dd8e04c-20c7-11e9-8054-dc241e2d861b"		52.59733	-1.07915	"52.59733, -1.07915"	1937	1981	"52.59733, -1.07915"	"Commercial"	"601 – 900"	"Minor"	"Suburb"	"Cinema"	0.5002435215	"0.50 – 0.75"	632	2	1	364	38	"USA"	1951	
"c2ee8aea-20cd-11e9-8054-dc241e2d861b"	"Lawn"	"Wanlip Lane, 19"	"United Kingdom"	"#f69899"	"Leicester"	"Birstall"	"leicester"	"english"	5	"Wanlip Lane, 19"	"6dd8d552-20c7-11e9-8054-dc241e2d861b"		52.6769	-1.11825	"52.6769, -1.11825"	1936	1970	"52.6769, -1.11825"	"Commercial"	"601 – 900"	"Intermediate"	"Suburb"	"Cinema"	0.6179748844	"0.50 – 0.75"	780.74	3	1.03	328	36	"USA"	1951	
"c2ef2b8a-20cd-11e9-8054-dc241e2d861b"	"Tudor Cinema"	"Vaughan Street/Hoby Street"	"United Kingdom"	"#f69899"	"Leicester"	"Leicester"	"leicester"	"english"	5	"Vaughan Street/Hoby Street"	"6dd918a0-20c7-11e9-8054-dc241e2d861b"		52.63719	-1.1494	"52.63719, -1.1494"	1914	1958	"52.63719, -1.1494"	"Commercial"	"901 – 1500"	"Intermediate"	"District"	"Cinema"	0.9038577247	"0.75 – 1.00"	1141.92	2	1.17	363	12	"USA"	1951	1
"c2ee8568-20cd-11e9-8054-dc241e2d861b"	"Knighton"	"Welford Road, 355"	"United Kingdom"	"#f69899"	"Leicester"	"Leicester"	"leicester"	"english"	5	"Welford Road, 355"	"6dd8d2aa-20c7-11e9-8054-dc241e2d861b"		52.6127	-1.1242	"52.6127, -1.1242"	1937	1963	"52.6127, -1.1242"	"Commercial"	"901 – 1500"	"Intermediate"	"District"	"Cinema"	0.8073550505	"0.75 – 1.00"	1020	3	1.02	329	42	"USA"	1950	
"c2eead54-20cd-11e9-8054-dc241e2d861b"	"Olympia"	"Narborough Road"	"United Kingdom"	"#f69899"	"Leicester"	"Leicester"	"leicester"	"english"	5	"Narborough Road"	"6dd8e5ec-20c7-11e9-8054-dc241e2d861b"		52.62457	-1.15259	"52.62457, -1.15259"	1913	1959	"52.62457, -1.15259"	"Commercial"	"901 – 1500"	"Major"	"District"	"Cinema"	1.6986117042	"1.00 – 2.00"	2146	2	1.48	361	27	"USA"	1951	1
"c2ef35da-20cd-11e9-8054-dc241e2d861b"	"Westleigh Kinema"	"Harrow Road, 102/Fosse Road, South"	"United Kingdom"	"#f69899"	"Leicester"	"Leicester"	"leicester"	"english"	5	"Harrow Road, 102/Fosse Road, South"	"6dd91bfc-20c7-11e9-8054-dc241e2d861b"		52.62871	-1.15418	"52.62871, -1.15418"	1926	1964	"52.62871, -1.15418"	"Commercial"	"901 – 1500"	"Intermediate"	"District"	"Cinema"	1.0558937621	"1.00 – 2.00"	1334	3	1	329	31	"USA"	1951	
"c2ef877e-20cd-11e9-8054-dc241e2d861b"	"Roxy Filmtheater"	"Kirchstr. 1"	"Germany"	"#fce267"	"Magdeburg"	"Magdeburg"	"magdeburg"	"german"	6	"Kirchstr. 1"	"6dd9944c-20c7-11e9-8054-dc241e2d861b"		52.126829	11.655394	"52.126829, 11.655394"	1937	"1959+"	"52.126829, 11.655394"	"State controlled"	"301 – 600"	"Intermediate"	"District"	"Cinema"	0.6095768088	"0.50 – 0.75"	770.13	5	1.29	343	55	"Soviet Union"	1951	1
"c2ef66c2-20cd-11e9-8054-dc241e2d861b"	"Oli Lichtspiele"	"Olvenstedter Str. 23/25"	"Germany"	"#fce267"	"Magdeburg"	"Magdeburg"	"magdeburg"	"german"	6	"Olvenstedter Str. 23/25"	"6dd93196-20c7-11e9-8054-dc241e2d861b"		52.135598	11.615558	"52.135598, 11.615558"	1936	"1959+"	"52.135598, 11.615558"	"State controlled"	"301 – 600"	"Minor"	"District"	"Cinema"	0.395516907	"0.20 – 0.50"	499.69	5	1.07	349	57	"Soviet Union"	1951	1
"c2edf0f8-20cd-11e9-8054-dc241e2d861b"	"Aylestone"	"Milligan Road, 58 /Grace Road"	"United Kingdom"	"#f69899"	"Leicester"	"Leicester"	"leicester"	"english"	5	"Milligan Road, 58 /Grace Road"	"6dd8adde-20c7-11e9-8054-dc241e2d861b"		52.60855	-1.1406	"52.60855, -1.1406"	1926	1968	"52.60855, -1.1406"	"Commercial"	"901 – 1500"	"Intermediate"	"District"	"Cinema"	0.9736701909	"0.75 – 1.00"	1230.12	2	1.02	347	50	"USA"	1951	
"c2ee7faa-20cd-11e9-8054-dc241e2d861b"	"Imperial Picture House"	"58 Green Lane Road"	"United Kingdom"	"#f69899"	"Leicester"	"Leicester"	"leicester"	"english"	5	"58 Green Lane Road"	"6dd8cfc6-20c7-11e9-8054-dc241e2d861b"		52.639898	-1.105389	"52.639898, -1.105389"	1912	1961	"52.639898, -1.105389"	"Commercial"	"601 – 900"	"Inactive"	"District"	"Cinema"	0.1038875984	"0.10 – 0.20"	525		0.75					
"c2ef809e-20cd-11e9-8054-dc241e2d861b"	"Rothensee Lichtspiele"	"Krugstr. 2a"	"Germany"	"#fce267"	"Magdeburg"	"Magdeburg"	"magdeburg"	"german"	6	"Krugstr. 2a"	"6dd9917c-20c7-11e9-8054-dc241e2d861b"		52.18415	11.661519	"52.184150, 11.661519"	1951	"1959+"	"52.184150, 11.661519"	"State controlled"	"301 – 600"	"Minor"	"District"	"Cinema"	0.1869976771	"0.10 – 0.20"	315	5	1	268	43	"Soviet Union"	1951	1
"c2efa57e-20cd-11e9-8054-dc241e2d861b"	"Südost Lichtspiele"	"Alt Westerhüsen 15 "	"Germany"	"#fce267"	"Magdeburg"	"Westerhüsen"	"magdeburg"	"german"	6	"Alt Westerhüsen 15 "	"6dd99c9e-20c7-11e9-8054-dc241e2d861b"		52.06783	11.674515	"52.067830, 11.674515"	1911	"1959+"	"52.067830, 11.674515"	"State controlled"	"Under 300"	"Minor"	"Suburb"	"Cinema"	0.1361422242	"0.10 – 0.20"	172	5	1	337	52	"Soviet Union"	1951	
"c2efd616-20cd-11e9-8054-dc241e2d861b"	"Hansa Lichtspiele"	"Breite Str. 26"	"Germany"	"#fce267"	"Magdeburg"	"Ottersleben"	"magdeburg"	"german"	6	"Breite Str. 26"	"6dd9af86-20c7-11e9-8054-dc241e2d861b"		52.088015	11.569584	"52.088015, 11.569584"	1952	"1959+"	"52.088015, 11.569584"	"State controlled"	"Under 300"	"Minor"	"Suburb"	"Cinema"	0.1108134383	"0.10 – 0.20"	280	4	1	114	8	"Czechoslovakia"	1951	
"c2efdb34-20cd-11e9-8054-dc241e2d861b"	"Arena"	"Westkruiskade 26"	"Netherlands"	"#e791ce"	"Rotterdam"	"Rotterdam"	"rotterdam"	"dutch"	7	"Westkruiskade 26"	"6dd9b22e-20c7-11e9-8054-dc241e2d861b"		51.920413	4.469759	"51.920413, 4.469759"	1945	1985	"51.920413, 4.469759"	"Commercial"	"901 – 1500"	"Major"	"Centre"	"Cinema"	2.3983194146	"2.00 – 5.00"	3030	11	3	354	13	"USA"	1952	1
"c2efe0fc-20cd-11e9-8054-dc241e2d861b"	"Capitol"	"Nieuwe Binnenweg 326"	"Netherlands"	"#e791ce"	"Rotterdam"	"Rotterdam"	"rotterdam"	"dutch"	7	"Nieuwe Binnenweg 326"	"6dd9b4a4-20c7-11e9-8054-dc241e2d861b"		51.912461	4.456938	"51.912461, 4.456938"	1931	1962	"51.912461, 4.456938"	"Commercial"	"901 – 1500"	"Major"	"District"	"Cinema"	2.6226928814	"2.00 – 5.00"	3313.47	7	2.67	354	6	"USA"	1952	1
"c2f0024e-20cd-11e9-8054-dc241e2d861b"	"Colosseum"	"Beijerlandselaan 80"	"Netherlands"	"#e791ce"	"Rotterdam"	"Rotterdam"	"rotterdam"	"dutch"	7	"Beijerlandselaan 80"	"6dd9beea-20c7-11e9-8054-dc241e2d861b"		51.89701	4.51109	"51.89701, 4.51109"	1929	1977	"51.89701, 4.51109"	"Commercial"	"901 – 1500"	"Major"	"District"	"Cinema"	1.7006063461	"1.00 – 2.00"	2148.52	6	2.09	354	32	"USA"	1950	1
"c2f00f8c-20cd-11e9-8054-dc241e2d861b"	"Harmonie"	"Gaesbeekstraat 99"	"Netherlands"	"#e791ce"	"Rotterdam"	"Rotterdam"	"rotterdam"	"dutch"	7	"Gaesbeekstraat 99"	"6dd9c548-20c7-11e9-8054-dc241e2d861b"		51.89497	4.48788	"51.89497, 4.48788"	1931	1973	"51.89497, 4.48788"	"Commercial"	"601 – 900"	"Intermediate"	"District"	"Cinema"	0.9385106699	"0.75 – 1.00"	1185.7	7	1.67	354	12	"USA"	1950	1
"c2f055be-20cd-11e9-8054-dc241e2d861b"	"Luxor"	"Kruiskade 30"	"Netherlands"	"#e791ce"	"Rotterdam"	"Rotterdam"	"rotterdam"	"dutch"	7	"Kruiskade 30"	"6dd9d29a-20c7-11e9-8054-dc241e2d861b"		51.92263	4.47624	"51.92263, 4.47624"	1917	1985	"51.92263, 4.47624"	"Commercial"	"901 – 1500"	"Major"	"Centre"	"Cinema"	2.1371163101	"2.00 – 5.00"	3600	7	3	212	2	"USA"	1951	1
"c2f07a26-20cd-11e9-8054-dc241e2d861b"	"Thalia"	"Kruiskade 55"	"Netherlands"	"#e791ce"	"Rotterdam"	"Rotterdam"	"rotterdam"	"dutch"	7	"Kruiskade 55"	"6dd9dfe2-20c7-11e9-8054-dc241e2d861b"		51.922804	4.476197	"51.922804, 4.476197"	1955	1997	"51.922804, 4.476197"	"Commercial"	"601 – 900"	"Inactive"	"Centre"	"Cinema"	0.1190255056	"0.10 – 0.20"	601.5		0.75					1
"c2e38118-20cd-11e9-8054-dc241e2d861b"	"Druzba"	"Divadelni 3"	"Czech Republic"	"#cdd28f"	"Brno"	"Brno"	"brno"	"czech"	2	"Divadelni 3"	"6dd52f88-20c7-11e9-8054-dc241e2d861b"		49.195052	16.61416	"49.195052, 16.614160"	1904	2003	"49.195052, 16.614160"	"State controlled"	"601 – 900"	"Major"	"Centre"	"Cinema"	1.5620974635	"1.00 – 2.00"	1973.53	8	2.47	323	30	"Czechoslovakia"	1951	1
"c2e3be4e-20cd-11e9-8054-dc241e2d861b"	"Lipa"	"Spolkova 8"	"Czech Republic"	"#cdd28f"	"Brno"	"Brno"	"brno"	"czech"	2	"Spolkova 8"	"6dd547f2-20c7-11e9-8054-dc241e2d861b"		49.201433	16.623306	"49.201433, 16.623306"	1911	1973	"49.201433, 16.623306"	"State controlled"	"301 – 600"	"Intermediate"	"District"	"Cinema"	0.5727313406	"0.50 – 0.75"	723.58	4	1.21	316	48	"Soviet Union"	1951	1
"c2e3d154-20cd-11e9-8054-dc241e2d861b"	"Mir"	"Hybesova 51"	"Czech Republic"	"#cdd28f"	"Brno"	"Brno"	"brno"	"czech"	2	"Hybesova 51"	"6dd55184-20c7-11e9-8054-dc241e2d861b"		49.189397	16.60036	"49.189397, 16.600360"	1940	1991	"49.189397, 16.600360"	"State controlled"	"301 – 600"	"Minor"	"District"	"Cinema"	0.4396444012	"0.20 – 0.50"	555.44	4	1.06	321	53	"Czechoslovakia"	1951	1
"c2e3e18a-20cd-11e9-8054-dc241e2d861b"	"Moskva"	"Moravske namesti 3"	"Czech Republic"	"#cdd28f"	"Brno"	"Brno"	"brno"	"czech"	2	"Moravske namesti 3"	"6dd55b02-20c7-11e9-8054-dc241e2d861b"		49.197393	16.608149	"49.197393, 16.608149"	1929	"today"	"49.197393, 16.608149"	"State controlled"	"601 – 900"	"Major"	"Centre"	"Cinema"	1.7572795046	"1.00 – 2.00"	2220.12	8	2.52	321	27	"Czechoslovakia"	1953	1
"c2e39c48-20cd-11e9-8054-dc241e2d861b"	"Jalta"	"Dominikanske namesti 2"	"Czech Republic"	"#cdd28f"	"Brno"	"Brno"	"brno"	"czech"	2	"Dominikanske namesti 2"	"6dd53bae-20c7-11e9-8054-dc241e2d861b"		49.19423	16.60642	"49.194230, 16.606420"	1929	1977	"49.194230, 16.606420"	"State controlled"	"601 – 900"	"Intermediate"	"Centre"	"Cinema"	0.9864216515	"0.75 – 1.00"	1246.23	6	1.83	281	18	"Czechoslovakia"	1952	
"c2e2bb34-20cd-11e9-8054-dc241e2d861b"	"Arena Quattro Palme"	"Via C. Rosselli (now 15-17 Corso Italia)"	"Italy"	"#7db4d3"	"Bari"	"Bari city"	"bari"	"italian"	1	"Via C. Rosselli (now 15-17 Corso Italia)"	"6dd4bc1a-20c7-11e9-8054-dc241e2d861b"		41.118964	16.868566	"41.118964, 16.868566"	1937	"in use"	"41.118964, 16.868566"	"Commercial "	"301 – 600"	"Seasonal"	"Centre"	"Open Air Cinema"	0.1700194753	"0.10 – 0.20"	859.2	3	2.4	76	5	"USA"	1950	1
"c2e09282-20cd-11e9-8054-dc241e2d861b"	"ANIC"	"46 Via Modugno"	"Italy"	"#7db4d3"	"Bari"	"Bari city"	"bari"	"italian"	1	"46 Via Modugno"	"6dd3f9b0-20c7-11e9-8054-dc241e2d861b"		41.112497	16.829577	"41.112497, 16.829577"	"1946-1947"	"before 1974"	"41.112497, 16.829577"	"Workers' Corporate Recreational Club"	"Under 300"	"Minor"	"District"	"Cinema - Theatre"	0.0373995354	"Up To 0.10"	189	1	0.75	6		"USA"	1948	
"5e046653-0085-4ae4-87cb-cc51885a5ffa"	"Savoia"	"Via Lattanzio"	"Italy"	"#7db4d3"	"Bari"	"Bari"	"bari"	"italian"	1	"Via Lattanzio"	"998f3ffb-94a4-43a9-9888-6ef15330e308"		41.115868	16.878366	"41.115868, 16.878366"	"before 1950"	"after 1960"	"41.115868, 16.878366"		"601 – 900"	"Inactive"	"District"	"Cinema"	0.101216203	"0.10 – 0.20"	511.5		0.75					
"c2e2efaa-20cd-11e9-8054-dc241e2d861b"	"Rizzi"	"162 Via Napoli on the corner of Via Giuseppe Lembo"	"Italy"	"#7db4d3"	"Bari"	"Bari - Santo Spirito"	"bari"	"italian"	1	"162 Via Napoli on the corner of Via Giuseppe Lembo"	"6dd4cc82-20c7-11e9-8054-dc241e2d861b"		41.163397	16.745966	"41.163397, 16.745966"	"1940s"	"1980s"	"41.163397, 16.745966"	"Commercial"	"601 – 900"	"Inactive"	"Suburb"	"Cinema"	0.0934988386	"Up To 0.10"	472.5		0.75					
"c2e1445c-20cd-11e9-8054-dc241e2d861b"	"Gloria"	"Corso Umberto I"	"Italy"	"#7db4d3"	"Bari"	"Bari - Santo Spirito"	"bari"	"italian"	1	"Corso Umberto I"	"6dd46fb2-20c7-11e9-8054-dc241e2d861b"		41.162343	16.751074	"41.162343, 16.751074"	"before 1954"	"after 1967"	"41.162343, 16.751074"	"Commercial"	"Under 300"	"Inactive"	"Suburb"	"Cinema"	0.0371027137	"Up To 0.10"	187.5		0.75					
"c2e1565e-20cd-11e9-8054-dc241e2d861b"	"Arena Gloria"	"Corso Umberto I"	"Italy"	"#7db4d3"	"Bari"	"Bari - Santo Spirito"	"bari"	"italian"	1	"Corso Umberto I"	"6dd4725a-20c7-11e9-8054-dc241e2d861b"		41.162343	16.751074	"41.162343, 16.751074"	"before 1954"	"1990s"	"41.162343, 16.751074"	"Commercial"	"301 – 600"	"Inactive"	"Suburb"	"Open Air Cinema"	0.0578802334	"Up To 0.10"	292.5		0.75					
"c2e904bc-20cd-11e9-8054-dc241e2d861b"	"Nova"	"Sint-Bernadettestraat"	"Belgium"	"#65be4a"	"Gent"	"Sint-Amandsberg"	"gent"	"dutch"	3	"Sint-Bernadettestraat"	"6dd6beca-20c7-11e9-8054-dc241e2d861b"		51.076882	3.752292	"51.076882, 3.752292"	1933	1963	"51.076882, 3.752292"	"Commercial"	"301 – 600"	"Minor"	"Suburb"	"Cinema"	0.4614588181	"0.20 – 0.50"	583	7	1.06	364	18	"USA"	1950	
"c2e28484-20cd-11e9-8054-dc241e2d861b"	"Oriente"	"32 Corso Cavour"	"Italy"	"#7db4d3"	"Bari"	"Bari city"	"bari"	"italian"	1	"32 Corso Cavour"	"6dd4a7ca-20c7-11e9-8054-dc241e2d861b"		41.123017	16.872767	"41.123017, 16.872767"	1928	2005	"41.123017, 16.872767"	"Commercial "	"901 – 1500"	"Major"	"Centre"	"Cinema"	2.6295633146	"2.00 – 5.00"	3322.15	4	2.47	354	15	"USA"	1951	1
"c2ead62a-20cd-11e9-8054-dc241e2d861b"	"Select"	"Woodrow Wilsonplein"	"Belgium"	"#65be4a"	"Gent"	"Gent"	"gent"	"dutch"	3	"Woodrow Wilsonplein"	"6dd6e5bc-20c7-11e9-8054-dc241e2d861b"		51.048201	3.730322	"51.048201, 3.730322"	1912	1982	"51.048201, 3.730322"	"Commercial"	"301 – 600"	"Intermediate"	"Centre"	"Cinema"	0.9498294711	"0.75 – 1.00"	1200	7	2	362	4	"USA"	1950	1
"c2e58ca6-20cd-11e9-8054-dc241e2d861b"	"Cameo"	"Frans van Ryhovenlaan"	"Belgium"	"#65be4a"	"Gent"	"Gent"	"gent"	"dutch"	3	"Frans van Ryhovenlaan"	"6dd5a5e4-20c7-11e9-8054-dc241e2d861b"		51.070004	3.708143	"51.070004, 3.708143"	1923	1977	"51.070004, 3.708143"	"Commercial"	"301 – 600"	"Minor"	"District"	"Cinema"	0.5277094237	"0.50 – 0.75"	666.7	7	1.13	364	24	"USA"	1951	1
"c2e8e180-20cd-11e9-8054-dc241e2d861b"	"Nord"	"Sint-Salvatorstraat"	"Belgium"	"#65be4a"	"Gent"	"Gent"	"gent"	"dutch"	3	"Sint-Salvatorstraat"	"6dd6b948-20c7-11e9-8054-dc241e2d861b"		51.067753	3.729502	"51.067753, 3.729502"	1911	1961	"51.067753, 3.729502"	"Commercial"	"301 – 600"	"Minor"	"District"	"Cinema"	0.4788723584	"0.20 – 0.50"	605	6	1.1	334	10	"USA"	1950	1
"c2e68070-20cd-11e9-8054-dc241e2d861b"	"Casino"	"J. Vervaenestraat"	"Belgium"	"#65be4a"	"Gent"	"Gentbrugge"	"gent"	"dutch"	3	"J. Vervaenestraat"	"6dd5ab7a-20c7-11e9-8054-dc241e2d861b"		51.032261	3.747009	"51.032261, 3.747009"	1914	1961	"51.032261, 3.747009"	"Commercial"	"601 – 900"	"Minor"	"Suburb"	"Cinema"	0.5141743537	"0.50 – 0.75"	649.6	7	1.12	352	17	"USA"	1950	
"c2e99e86-20cd-11e9-8054-dc241e2d861b"	"Rio"	"Meibloemstraat"	"Belgium"	"#65be4a"	"Gent"	"Gent"	"gent"	"dutch"	3	"Meibloemstraat"	"6dd6d1d0-20c7-11e9-8054-dc241e2d861b"		51.059723	3.696291	"51.059723, 3.696291"	1921	1965	"51.059723, 3.696291"	"Commercial"	"301 – 600"	"Minor"	"District"	"Cinema"	0.4842547254	"0.20 – 0.50"	611.8	7	1.33	350	9	"USA"	1950	1
"c2e356a2-20cd-11e9-8054-dc241e2d861b"	"Umberto"	"Piazza Umberto on the corner of Via Niccolò dell’Arca"	"Italy"	"#7db4d3"	"Bari"	"Bari city"	"bari"	"italian"	1	"Piazza Umberto on the corner of Via Niccolò dell’Arca"	"6dd516ce-20c7-11e9-8054-dc241e2d861b"		41.120183	16.870775	"41.120183, 16.870775"	1922	"1955-56"	"41.120183, 16.870775"	"Commercial "	"901 – 1500"	"Major"	"Centre"	"Cinema"	2.576333288	"2.00 – 5.00"	3254.9	3	2.42	346	19	"USA"	1951	1
"c2ea58b2-20cd-11e9-8054-dc241e2d861b"	"Scaldis"	"Meulesteedsesteenweg"	"Belgium"	"#65be4a"	"Gent"	"Gent"	"gent"	"dutch"	3	"Meulesteedsesteenweg"	"6dd6e2f6-20c7-11e9-8054-dc241e2d861b"		51.074227	3.730872	"51.074227, 3.730872"	1941	1972	"51.074227, 3.730872"	"Commercial"	"301 – 600"	"Minor"	"District"	"Cinema"	0.2493302362	"0.20 – 0.50"	315	7	1	360	14	"USA"	1950	
"c2e45584-20cd-11e9-8054-dc241e2d861b"	"Uderka"	"Namesti Svobody 6"	"Czech Republic"	"#cdd28f"	"Brno"	"Brno"	"brno"	"czech"	2	"Namesti Svobody 6"	"6dd59608-20c7-11e9-8054-dc241e2d861b"		49.195513	16.608582	"49.195513, 16.608582"	1907	1979	"49.195513, 16.608582"	"State controlled"	"Under 300"	"Minor"	"Centre"	"Cinema"	0.1146028621	"0.10 – 0.20"	579.15	2	1.95	87	21	"Soviet Union"	1952	1
"c2e3f684-20cd-11e9-8054-dc241e2d861b"	"Prace"	"Vazneho 19"	"Czech Republic"	"#cdd28f"	"Brno"	"Brno"	"brno"	"czech"	2	"Vazneho 19"	"6dd5626e-20c7-11e9-8054-dc241e2d861b"		49.248487	16.581269	"49.248487, 16.581269"	1926	1963	"49.248487, 16.581269"	"State controlled"	"301 – 600"	"Inactive"	"Suburb"	"Cinema"	0.0510533341	"Up To 0.10"	258		0.75					
"c2ebfdca-20cd-11e9-8054-dc241e2d861b"	"Cosmorama"	"Östra Hamngatan 46-48"	"Sweden"	"#b28ed8"	"Göteborg"	"Göteborg"	"gothenburg"	"swedish"	4	"Östra Hamngatan 46-48"	"6dd73e7c-20c7-11e9-8054-dc241e2d861b"		57.705437	11.969474	"57.705437, 11.969474"	1908	1988	"57.705437, 11.969474"	"Commercial"	"901 – 1500"	"Major"	"Centre"	"Cinema"	2.0645493385	"2.00 – 5.00"	2608.32	12	2.86	362	21	"USA"	1952	1
"c2ec21c4-20cd-11e9-8054-dc241e2d861b"	"Göta"	"Götaplatsen 9"	"Sweden"	"#b28ed8"	"Göteborg"	"Göteborg"	"gothenburg"	"swedish"	4	"Götaplatsen 9"	"6dd7c46e-20c7-11e9-8054-dc241e2d861b"		57.697472	11.978995	"57.697472, 11.978995"	1936	1997	"57.697472, 11.978995"	"Commercial"	"601 – 900"	"Major"	"District"	"Cinema"	1.6622015745	"1.00 – 2.00"	2100	5	3	359	3	"USA"	1951	1
"c2ec1008-20cd-11e9-8054-dc241e2d861b"	"Fyren"	"Stigbergstorget 2"	"Sweden"	"#b28ed8"	"Göteborg"	"Göteborg"	"gothenburg"	"swedish"	4	"Stigbergstorget 2"	"6dd7928c-20c7-11e9-8054-dc241e2d861b"		57.699246	11.934169	"57.699246, 11.934169"	1943	1985	"57.699246, 11.934169"	"Commercial"	"301 – 600"	"Intermediate"	"District"	"Cinema"	0.8449682975	"0.75 – 1.00"	1067.52	5	1.92	333	13	"USA"	1951	1
"c2ec2778-20cd-11e9-8054-dc241e2d861b"	"Kaparen"	"Stigbergstorget 10"	"Sweden"	"#b28ed8"	"Göteborg"	"Göteborg"	"gothenburg"	"swedish"	4	"Stigbergstorget 10"	"6dd7c806-20c7-11e9-8054-dc241e2d861b"		57.698613	11.933227	"57.698613, 11.933227"	1940	1982	"57.698613, 11.933227"	"Commercial"	"601 – 900"	"Major"	"District"	"Cinema"	1.470905919	"1.00 – 2.00"	1858.32	5	2.32	323	25	"USA"	1951	1
"c2ece78a-20cd-11e9-8054-dc241e2d861b"	"Odéon"	"Drottninggatan 45-47"	"Sweden"	"#b28ed8"	"Göteborg"	"Göteborg"	"gothenburg"	"swedish"	4	"Drottninggatan 45-47"	"6dd8799a-20c7-11e9-8054-dc241e2d861b"		57.706061	11.969907	"57.706061, 11.969907"	1919	1962	"57.706061, 11.969907"	"Commercial"	"301 – 600"	"Minor"	"Centre"	"Cinema"	0.3339778514	"0.20 – 0.50"	562.59	5	1.33	268	15	"USA"	1952	1
"c2ed84d8-20cd-11e9-8054-dc241e2d861b"	"Spegeln"	"Kungsportsavenyn 14 "	"Sweden"	"#b28ed8"	"Göteborg"	"Göteborg"	"gothenburg"	"swedish"	4	"Kungsportsavenyn 14 "	"6dd89f06-20c7-11e9-8054-dc241e2d861b"		57.701128	11.974892	"57.701128, 11.974892"	1940	1989	"57.701128, 11.974892"	"Commercial"	"301 – 600"	"Intermediate"	"Centre"	"Cinema"	0.7772771172	"0.75 – 1.00"	982	13	2	358	7	"France"	1951	1
"c2e435cc-20cd-11e9-8054-dc241e2d861b"	"Sport"	"Rokycanova 33"	"Czech Republic"	"#cdd28f"	"Brno"	"Brno"	"brno"	"czech"	2	"Rokycanova 33"	"6dd57bf0-20c7-11e9-8054-dc241e2d861b"		49.198983	16.641912	"49.198983, 16.641912"	1922	1966	"49.198983, 16.641912"	"State controlled"	"601 – 900"	"Intermediate"	"Suburb"	"Cinema"	0.6144921764	"0.50 – 0.75"	776.34	4	1.14	320	56	"Czechoslovakia"	1951	1
"c2ed07b0-20cd-11e9-8054-dc241e2d861b"	"Rex"	"Granåsgatan 2  (Granåsgatan is a newly founded streetname - in 1952 the address was called ""Backavägen 75"")"	"Sweden"	"#b28ed8"	"Göteborg"	"Göteborg"	"gothenburg"	"swedish"	4	"Granåsgatan 2  (Granåsgatan is a newly founded streetname - in 1952 the address was called ""Backavägen 75"")"	"6dd88822-20c7-11e9-8054-dc241e2d861b"		57.734946	11.974533	"57.734946, 11.974533"	1940	1958	"57.734946, 11.974533"	"Commercial"	"Under 300"	"Minor"	"Suburb"	"Cinema"	0.1187286839	"0.10 – 0.20"	300	3	1	159	18	"USA"	1952	1
"c2ecf068-20cd-11e9-8054-dc241e2d861b"	"Olympia"	"Långedragsvägen 22"	"Sweden"	"#b28ed8"	"Göteborg"	"Göteborg"	"gothenburg"	"swedish"	4	"Långedragsvägen 22"	"6dd87c74-20c7-11e9-8054-dc241e2d861b"		57.679649	11.898941	"57.679649, 11.898941"	1929	1971	"57.679649, 11.898941"	"Commercial"	"Under 300"	"Minor"	"Suburb"	"Cinema"	0.1037213782	"0.10 – 0.20"	262.08	6	1.17	174	29	"Sweden"	1950	1
"c2ed01e8-20cd-11e9-8054-dc241e2d861b"	"Redbergsgården"	"Danska Vägen 110 "	"Sweden"	"#b28ed8"	"Göteborg"	"Göteborg"	"gothenburg"	"swedish"	4	"Danska Vägen 110 "	"6dd8853e-20c7-11e9-8054-dc241e2d861b"		57.714932	12.004759	"57.714932, 12.004759"	1943	1971	"57.714932, 12.004759"	"Commercial"	"Under 300"	"Minor"	"Suburb"	"Cinema"	0.096170234	"Up To 0.10"	243	2	1	95	4	"USA"	1951	1
"c2ee9044-20cd-11e9-8054-dc241e2d861b"	"Magna"	"Long Street 27"	"United Kingdom"	"#f69899"	"Leicester"	"Wigston"	"leicester"	"english"	5	"Long Street 27"	"6dd8d7fa-20c7-11e9-8054-dc241e2d861b"		52.58312	-1.10902	"52.58312, -1.10902"	1934	1986	"52.58312, -1.10902"	"Commercial"	"901 – 1500"	"Intermediate"	"Suburb"	"Cinema"	0.7440330857	"0.50 – 0.75"	940	2	1	363	34	"USA"	1951	
"c2eed004-20cd-11e9-8054-dc241e2d861b"	"Ritz"	"Blaby Road, 53-57"	"United Kingdom"	"#f69899"	"Leicester"	"South Wigston"	"leicester"	"english"	5	"Blaby Road, 53-57"	"6dd8f690-20c7-11e9-8054-dc241e2d861b"		52.57974	-1.13362	"52.57974, -1.13362"	1920	1980	"52.57974, -1.13362"	"Commercial"	"601 – 900"	"Intermediate"	"Suburb"	"Cinema"	0.6965416122	"0.50 – 0.75"	880	2	1	362	19	"USA"	1951	
"c2ef25e0-20cd-11e9-8054-dc241e2d861b"	"Trocadero"	"Uppingham Road"	"United Kingdom"	"#f69899"	"Leicester"	"Leicester"	"leicester"	"english"	5	"Uppingham Road"	"6dd915da-20c7-11e9-8054-dc241e2d861b"		52.64197	-1.08424	"52.64197, -1.08424"	1931	1963	"52.64197, -1.08424"	"Commercial"	"1501+"	"Elite"	"District"	"Cinema"	4.4529905266	"2.00 – 5.00"	5625.84	3	2.64	362	22	"USA"	1952	1
"c2eeca78-20cd-11e9-8054-dc241e2d861b"	"Regal"	"Havelock Street"	"United Kingdom"	"#f69899"	"Leicester"	"Leicester"	"leicester"	"english"	5	"Havelock Street"	"6dd8f406-20c7-11e9-8054-dc241e2d861b"		52.6272	-1.13834	"52.6272, -1.13834"	1936	1959	"52.6272, -1.13834"	"Commercial"	"901 – 1500"	"Intermediate"	"District"	"Cinema"	1.136945877	"1.00 – 2.00"	1436.4	2	1.33	363	12	"USA"	1952	
"c2ef191a-20cd-11e9-8054-dc241e2d861b"	"Sovereign"	"Woodgate, 56"	"United Kingdom"	"#f69899"	"Leicester"	"Leicester"	"leicester"	"english"	5	"Woodgate, 56"	"6dd9101c-20c7-11e9-8054-dc241e2d861b"		52.64372	-1.14649	"52.64372, -1.14649"	1919	1960	"52.64372, -1.14649"	"Commercial"	"601 – 900"	"Intermediate"	"District"	"Cinema"	0.878275651	"0.75 – 1.00"	1109.6	2	1.46	361	26	"USA"	1951	1
"c2f01586-20cd-11e9-8054-dc241e2d861b"	"Het Venster"	"Gouvernestraat 129-133"	"Netherlands"	"#e791ce"	"Rotterdam"	"Rotterdam"	"rotterdam"	"dutch"	7	"Gouvernestraat 129-133"	"6dd9ca84-20c7-11e9-8054-dc241e2d861b"		51.91705	4.469597	"51.917050, 4.469597"	1949	2010	"51.917050, 4.469597"	"Commercial"	"Under 300"	"Minor"	"Centre"	"Cinema"	0.3932294011	"0.20 – 0.50"	496.8	14	2.7	354	10	"France"	1949	
"c2eff128-20cd-11e9-8054-dc241e2d861b"	"Cineac Beurs/AD"	"Coolsingel 60"	"Netherlands"	"#e791ce"	"Rotterdam"	"Rotterdam"	"rotterdam"	"dutch"	7	"Coolsingel 60"	"6dd9b9d6-20c7-11e9-8054-dc241e2d861b"		51.920549	4.480105	"51.920549, 4.480105"	1940	1984	"51.920549, 4.480105"	"Commercial"	"301 – 600"	"Major"	"Centre"	"Cinema"	1.3867510279	"1.00 – 2.00"	1752	9	2.92	354	24	"USA"	1951	1
"c2ef7022-20cd-11e9-8054-dc241e2d861b"	"Palast Theater Buckau"	"Str. d. Deutsch Sowjetischen Freundschaft 94b"	"Germany"	"#fce267"	"Magdeburg"	"Magdeburg"	"magdeburg"	"german"	6	"Str. d. Deutsch Sowjetischen Freundschaft 94b"	"6dd989d4-20c7-11e9-8054-dc241e2d861b"		52.104777	11.642829	"52.104777, 11.642829"	1912	"1959+"	"52.104777, 11.642829"	"State controlled"	"901 – 1500"	"Major"	"District"	"Cinema"	1.8192400471	"1.00 – 2.00"	2298.4	5	2.08	338	51	"Soviet Union"	1951	1
"c2e8d9f6-20cd-11e9-8054-dc241e2d861b"	"Muide"	"Sint-Theresiastraat"	"Belgium"	"#65be4a"	"Gent"	"Muide"	"gent"	"dutch"	3	"Sint-Theresiastraat"	"6dd6b61e-20c7-11e9-8054-dc241e2d861b"		51.076886	3.731776	"51.076886, 3.731776"	1930	1959	"51.076886, 3.731776"	"Commercial"	"Under 300"	"Minor"	"District"	"Cinema"	0.027604419	"Up To 0.10"	139.5	7	0.75	90		"USA"	1949	
"c2eddcbc-20cd-11e9-8054-dc241e2d861b"	"Svea-biografen"	"Hvitfeldtsplatsen 1B  "	"Sweden"	"#b28ed8"	"Göteborg"	"Göteborg"	"gothenburg"	"swedish"	4	"Hvitfeldtsplatsen 1B  "	"6dd8a622-20c7-11e9-8054-dc241e2d861b"		57.702227	11.961362	"57.702227, 11.961362"	1909	1953	"57.702227, 11.961362"	"Commercial"	"Under 300"	"Minor"	"Centre"	"Cinema"	0.0222616282	"Up To 0.10"	112.5	5	0.75	57		"USA"	1948	
"c2ec2d4a-20cd-11e9-8054-dc241e2d861b"	"KFUM"	"Parkgatan 11"	"Sweden"	"#b28ed8"	"Göteborg"	"Göteborg"	"gothenburg"	"swedish"	4	"Parkgatan 11"	"6dd7cb26-20c7-11e9-8054-dc241e2d861b"		57.700008	11.967043	"57.700008, 11.967043"			"57.700008, 11.967043"	"Non-Commercial"	"601 – 900"	"Inactive"	"Centre"	"Cinema"	0.0964670557	"Up To 0.10"	487.5		0.75					
"c2ec32fe-20cd-11e9-8054-dc241e2d861b"	"Konserthuset"	"Götaplatsen 41256"	"Sweden"	"#b28ed8"	"Göteborg"	"Göteborg"	"gothenburg"	"swedish"	4	"Götaplatsen 41256"	"6dd7cdf6-20c7-11e9-8054-dc241e2d861b"		57.697082	11.97947	"57.697082, 11.979470"	1935	"Active"	"57.697082, 11.979470"	"Non-Commercial"	"301 – 600"	"Inactive"	"District"	"Cinema"	0.0578802334	"Up To 0.10"	292.5	2	0.75	10		"Norway"	1952	
"c2ef552e-20cd-11e9-8054-dc241e2d861b"	"Kammerlichtspiele"	"Richard Dembny Str. 19"	"Germany"	"#fce267"	"Magdeburg"	"Ottersleben"	"magdeburg"	"german"	6	"Richard Dembny Str. 19"	"6dd92930-20c7-11e9-8054-dc241e2d861b"		52.090393	11.580079	"52.090393, 11.580079"	1926	"1959+"	"52.090393, 11.580079"	"State controlled"	"301 – 600"	"Minor"	"Suburb"	"Cinema"	0.1990684267	"0.10 – 0.20"	503	5	1	116	18	"Czechoslovakia"	1952	1
"c2efcb26-20cd-11e9-8054-dc241e2d861b"	"Theater des Nordens"	"Am Schöppensteg 94"	"Germany"	"#fce267"	"Magdeburg"	"Magdeburg"	"magdeburg"	"german"	6	"Am Schöppensteg 94"	"6dd9a874-20c7-11e9-8054-dc241e2d861b"		52.165222	11.649646	"52.165222, 11.649646"	1954	"1959+"	"52.165222, 11.649646"	"State controlled"	"601 – 900"	"Inactive"	"District"	"Cinema"	0.1187286839	"0.10 – 0.20"	600		0.75					
"c2efe7be-20cd-11e9-8054-dc241e2d861b"	"Centraal"	"Binnenweg 59"	"Netherlands"	"#e791ce"	"Rotterdam"	"Rotterdam"	"rotterdam"	"dutch"	7	"Binnenweg 59"	"6dd9b72e-20c7-11e9-8054-dc241e2d861b"		51.917788	4.476196	"51.917788, 4.476196"	1953	1989	"51.917788, 4.476196"	"Commercial"	"601 – 900"	"Minor"	"Centre"	"Cinema"	0.1264460483	"0.10 – 0.20"	639	7	0.75	23		"USA"	1952	1
"c2f008a2-20cd-11e9-8054-dc241e2d861b"	"Courzand"	"Courzandseweg 40"	"Netherlands"	"#e791ce"	"Rotterdam"	"Rotterdam"	"rotterdam"	"dutch"	7	"Courzandseweg 40"	"6dd9c16a-20c7-11e9-8054-dc241e2d861b"		51.89334	4.420667	"51.893340, 4.420667"	1942	1958	"51.893340, 4.420667"	"Commercial"	"301 – 600"	"Inactive"	"District"	"Cinema"	0.0887496912	"Up To 0.10"	448.5		0.75					1
"c2f01aea-20cd-11e9-8054-dc241e2d861b"	"Lumière"	"Lijnbaan 45"	"Netherlands"	"#e791ce"	"Rotterdam"	"Rotterdam"	"rotterdam"	"dutch"	7	"Lijnbaan 45"	"6dd9cd36-20c7-11e9-8054-dc241e2d861b"		51.922691	4.475815	"51.922691, 4.475815"	1955	2003	"51.922691, 4.475815"	"Commercial"	"601 – 900"	"Inactive"	"Centre"	"Cinema"	0.1127922497	"0.10 – 0.20"	570		0.75					1
"c2f02058-20cd-11e9-8054-dc241e2d861b"	"Lutusca"	"Kruisplein 1"	"Netherlands"	"#e791ce"	"Rotterdam"	"Rotterdam"	"rotterdam"	"dutch"	7	"Kruisplein 1"	"6dd9cfde-20c7-11e9-8054-dc241e2d861b"		51.922426	4.470718	"51.922426, 4.470718"	1946	1959	"51.922426, 4.470718"	"Commercial"	"901 – 1500"	"Major"	"Centre"	"Cinema"	2.4933023617	"2.00 – 5.00"	3150	8	3	354	5	"USA"	1950	1
"c2f05ca8-20cd-11e9-8054-dc241e2d861b"	"Metro"	"Wolphaertsbocht 196"	"Netherlands"	"#e791ce"	"Rotterdam"	"Rotterdam"	"rotterdam"	"dutch"	7	"Wolphaertsbocht 196"	"6dd9d54c-20c7-11e9-8054-dc241e2d861b"		51.890897	4.475265	"51.890897, 4.475265"	1955	1985	"51.890897, 4.475265"	"Commercial"	"601 – 900"	"Inactive"	"District"	"Cinema"	0.1221421336	"0.10 – 0.20"	617.25		0.75					1
"c2f062c0-20cd-11e9-8054-dc241e2d861b"	"Prinses Theater"	"Schiedamseweg 19"	"Netherlands"	"#e791ce"	"Rotterdam"	"Rotterdam"	"rotterdam"	"dutch"	7	"Schiedamseweg 19"	"6dd9d7cc-20c7-11e9-8054-dc241e2d861b"		51.909974	4.447502	"51.909974, 4.447502"	1917	1973	"51.909974, 4.447502"	"Commercial"	"601 – 900"	"Major"	"Centre"	"Cinema"	0.8311007872	"0.75 – 1.00"	1050	7	1.5	354	4	"USA"	1950	1
"c2f080de-20cd-11e9-8054-dc241e2d861b"	"Victoria"	"Bergweg 108"	"Netherlands"	"#e791ce"	"Rotterdam"	"Rotterdam"	"rotterdam"	"dutch"	7	"Bergweg 108"	"6dd9e2d0-20c7-11e9-8054-dc241e2d861b"		51.937837	4.479514	"51.937837, 4.479514"	1935	1971	"51.937837, 4.479514"	"Commercial"	"601 – 900"	"Major"	"District"	"Cinema"	1.6231635832	"1.00 – 2.00"	2050.68	7	2.76	354	25	"USA"	1950	1
"c2f08e76-20cd-11e9-8054-dc241e2d861b"	"Monopole"	"Hoogstraat, hoek Appelmarkt"	"Netherlands"	"#e791ce"	"Rotterdam"	"Schiedam"	"rotterdam"	"dutch"	7	"Hoogstraat, hoek Appelmarkt"	"6dd9e910-20c7-11e9-8054-dc241e2d861b"		51.91588	4.39774	"51.91588, 4.39774"	1938	1968	"51.91588, 4.39774"	"Commercial"	"301 – 600"	"Minor"	"District"	"Cinema"	0.3370707336	"0.20 – 0.50"	567.8	4	1.67	246	9	"USA"	1950	
